name,latitude,longitude
Valea Crişulu,45.91667,25.78333
Ghioca,44.31667,24.73333
Zvorsca,43.99179,24.17719
Zvoriştea,47.83333,26.28333
Zvorănești,47.21312,26.56837
Zuvelcați,44.47017,24.7627
Zurbaua,44.48966,25.91405
Zugreni,47.4,25.51667
Zorzila,44.93499,22.99592
Zorlencior,45.47586,22.00986
Zorlești,45.09136,23.72013
Zorlenţu Mare,45.45056,21.95611
Zorleni,46.26667,27.71667
Zorleasca,44.4198,24.46036
Zorile,44.68333,24.85
Zorile,45.49354,22.06317
Zorile,44.37864,25.80678
Zorile,44.0754,27.93488
Zorești,45.18177,26.70291
Zorenii de Vale,46.78805,24.07556
Zoreni,46.89661,24.27573
Zorani,45.8722,22.27902
Zonţ,46.86667,24.48333
Zoltan,45.91763,25.85207
Zolt,45.75612,22.25693
Zoițani,48.05654,26.96621
Zoina,45.05701,22.45389
Zoicaru,44.45,26.45
Zmogotin,45.09673,22.47065
Zmeurătu,45.15,24.18333
Zmeu,47.19161,27.17917
Zloteşti,44.35,25.18333
Zlodica,47.36754,26.93667
Zlătunoaia Mică,47.65,26.98333
Zlătunoaia,47.65026,27.00743
Zlatna,46.10633,23.23162
Zlatița,44.86495,21.46917
Zlătari,46.50686,27.11742
Zlătari,44.45722,23.75078
Zlătărei,44.63057,24.25788
Zlătăreasa,46.36667,27.23333
Zlata,43.87502,25.02355
Zlaşti,45.73333,22.86667
Zlăşteni,44.98333,23.25
Zlapia,44.83333,24.66667
Zlagna,46.03258,24.47253
Zlagna,45.37799,22.30049
Zizincuţa,46.56667,27.75
Zizinca,46.5448,27.74754
Zizin,45.63697,25.77898
Zârne,46.65,22.16667
Snide,46.4496,22.78987
Zinca,44.6,25.4
Zimți,46.75979,25.04912
Zimnicele,43.66126,25.41291
Zimnicea,43.66667,25.36667
Zimbru,46.33602,22.38904
Zimbru,46.0561,27.76754
Zimbru,44.31819,26.93585
Zâmbreasca,44.31667,24.98333
Zimbor,47.0,23.26667
Zimandu Nou,46.28333,21.4
Zimandcuz,46.25644,21.3818
Zilișteanca,45.24955,26.87032
Zigoneni,45.09156,24.68016
Zidurile,44.58176,25.55458
Zidurile,44.57845,25.16828
Ziduri,45.3,27.08333
Zidarii,45.4,27.03333
Zidari,44.26667,24.53333
Zgura Băiţa,46.46667,22.58333
Zgura,46.56847,27.93972
Zgubea,44.9213,23.90815
Zgripcești,44.93815,25.07691
Zgribești,45.53288,22.0259
Zgaboeşti,45.08333,24.78333
Zetea,46.38333,25.36667
Zervești,45.40679,22.29238
Zerindu Mic,46.63062,21.638
Zerind,46.61667,21.51667
Zencani,46.927,25.33411
Zemeş,46.58333,26.41667
Zeletinu de Jos,46.2,27.38333
Zeletin,45.26133,26.22829
Zăicoiu,44.74386,23.74582
Zeicani,45.50199,22.72843
Zegujani,44.80854,22.91523
Zegaia,44.63312,22.83378
Zece Prăjini,46.93943,27.18322
Zece Hotare,46.89386,22.48349
Zebil,44.946,28.76873
Zdrapți,46.15612,22.86954
Zborişte,46.98333,22.6
Zboiu,44.12687,26.30929
Zberoaia,46.92709,28.04124
Zbereşti,46.76667,26.65
Zbereni,47.38016,26.8414
Zbegu,45.09258,22.41235
Zăvoiu,46.82168,22.1968
Zăvoiu,44.66038,25.4035
Zăvoiu,44.56667,24.66667
Zăvoi,46.41667,26.43333
Zăvoi,45.51884,22.98161
Zăvoi,45.51667,22.41667
Zăvoi,44.859,24.89477
Zăvoieni,44.77634,24.02219
Zăvoaia,45.03333,25.9
Zăvoaia,44.95,27.48333
Zăvideni,44.75358,24.24421
Zăvelceşti,44.96667,23.71667
Zăval,43.84717,23.84208
Zau de Câmpie,46.61382,24.1308
Bărboși,46.58333,24.18333
Zăuan-Băi,47.25,22.65
Zăuan,47.22495,22.66328
Zătrenii de Sus,44.76667,24.85
Zătreni-Biserica,44.76667,23.85
Zătreni,44.76667,23.85
Zătreana,44.86667,23.21667
Zatna,44.85,27.96667
Zăsloane,44.70892,21.82885
Jaroștea,44.78683,24.10618
Zărneștii de Slănic,45.27708,26.75549
Zărnești,46.01801,27.85412
Zărnești,45.56093,25.31787
Zărneşti,45.3,26.86667
Zărnești,45.0203,24.77077
Zărnești,44.89863,24.01485
Zărneni,44.62949,24.2313
Zărieș,46.18376,23.70711
Zarica,47.81667,24.43333
Zărand,46.4,21.65
Zărăfoaia,45.05,25.43333
Zăpodie,46.88333,24.25
Zăpodia,46.64594,27.07407
Zăpodia,46.5645,27.31361
Zăpodea,46.55,24.13333
Zăpodia,45.36969,26.52068
Zăpodeni,46.75,27.65
Zăpodea,46.89864,25.35841
Zăpode,47.23333,23.88333
Zăplazi,45.40283,26.97396
Zânzești,46.53335,22.95707
Zănou,44.73476,21.83741
Zănogi,45.09047,22.46675
Zănoaga,44.86697,26.16375
Zănoaga,44.15511,24.09832
Zănoaga,44.10386,24.61097
Zăneşti,46.81667,26.55
Zamostea,47.86667,26.2
Zamora,45.41667,25.53333
Zamfireşti,45.18333,27.21667
Zamfirești,45.19336,27.21095
Zamfirești,45.19197,24.50684
Zamfirești,44.98249,24.65438
Zamfira,45.06827,26.00835
Zâmbroaia,45.19896,26.12755
Zam,46.83333,23.0
Zam,46.0,22.45
Zalnoc,47.36745,22.68663
Zalhanaua,44.90238,25.83105
Zalha,47.18333,23.53333
Zalău,47.2,23.05
Zălan,45.95996,25.8174
Zăicești,47.69004,26.72499
Zahoreni,47.96164,27.05021
Zahareşti,45.03333,24.88333
Zaharești,47.59097,26.15234
Zaharești,45.29794,26.37583
Zahanaua,44.86823,25.93317
Zahana,44.31667,23.73333
Zăgujeni,45.48204,22.16286
Zăgriș,46.22723,23.54159
Zagra,47.33333,24.28333
Zagon,45.76667,26.11667
Zagavia,47.41911,26.8979
Zagăr,46.35,24.61667
Zăgancea,45.75,27.81667
Zădăriciu,44.47259,25.58263
Zădăreni,46.13274,21.21821
Zăbrăuţii,45.95,27.1
Zăbrătău,45.61624,26.13133
Zăbrani,46.06667,21.55
Zaboloteni,47.47592,27.4978
Zăbalț,46.00818,21.9224
Zăbala,45.9,26.18333
Vuvuru,45.06667,23.6
Vutcani,46.46667,27.96667
Vurpăr,46.0,23.46667
Vurpăr,45.9,24.35
Vulturu,45.61667,27.41667
Vulturu de Jos,45.6,27.43333
Vulturu,45.1748,29.06994
Vulturu,44.65,28.26667
Vulturi,47.24854,27.53807
Vultureştii de Sus,45.08333,25.1
Vultureştii de Jos,45.08333,25.08333
Vultureşti,47.51667,26.45
Vultureşti,46.81667,27.53333
Vulturești,45.06618,25.08347
Vultureşti,44.73333,24.31667
Vultureni,47.85378,26.71267
Vultureni,46.96667,23.56667
Vultureni,46.36667,27.28333
Vultureni,45.66667,27.53333
Vultureni,44.94008,27.3648
Vultureanca,44.60299,25.24253
Vâltori,46.4038,22.93945
Vulpueşti,45.2,24.23333
Vulpuești,45.06519,24.22685
Vulpești,44.79373,24.34265
Vulpeşti,44.68333,25.95
Vulpești,44.5975,24.94193
Vulpeni,44.46667,23.91667
Vulpășești,46.97011,27.06044
Vulpășeni,46.36227,27.67449
Vuliva,47.91667,25.85
Vuleru,46.15,23.88333
Vulcez,45.9,22.8
Vulcăneasa,46.36667,22.91667
Vulcăneasa,45.77388,26.90981
Vulcana-Pandele,45.01558,25.39319
Vulcana de Sus,45.10125,25.35826
Vulcana Băi,45.07982,25.38219
Vulcan,46.15,23.88333
Vulcan,46.23979,22.9718
Vulcan,46.14843,24.85369
Vulcan,45.63333,25.41667
Vulcan,45.38333,23.26667
Vucsor,44.7,21.85
Vucova,45.62053,21.51182
Vrâncioaia Negrileşti,45.93333,26.7
Vrâncioaia,45.85,26.73333
Vrânceni,46.21298,26.90915
Vrelea,45.46667,24.31667
Vrata,44.19197,22.84928
Vrăniuț,45.00134,21.54995
Vrănești,44.84595,25.00716
Vrancea,44.54531,22.59942
Vrăbiori-Ştiubei,44.78333,24.13333
Vrăbieri,44.78333,24.13333
Vrabia,46.22303,25.90505
Vovriești,46.86999,27.20793
Voșlăbeni,46.65,25.63333
Vorţa,46.01667,22.68333
Vorovești,47.13984,27.46426
Voroveni,45.02625,25.06452
Vorotele,45.08333,24.31667
Voroneţ,47.52489,25.86422
Vorona Teodoru,47.55,26.6
Vorona Mare,47.55613,26.61586
Vorona-Dobrovolschi,47.56667,26.63333
Vorona Deal,47.6,26.6
Vorona,47.59668,26.64482
Vonigeasa,44.98231,24.54222
Vornicenii Mici,47.56517,26.16215
Vorniceni,47.98333,26.66667
Vornicenii Mari,47.56667,26.13333
Voluntari,44.49002,26.17338
Volovăţ,47.81667,25.9
Voloşcani Mici,45.91667,26.91667
Voloşcani Mari,45.91667,26.91667
Voloșcani,45.92489,26.92291
Voloicel,44.62328,23.06434
Voloiac,44.61667,23.1
Volintireşti,47.16918,26.82861
Volintireşti,47.13333,26.85
Voivozi,47.46957,22.04033
Voivozi,47.21562,22.39024
Voivodenii Mici,45.76667,24.85
Voivodenii Mari,45.77866,24.85725
Fântânele,47.06667,23.41667
Voivodeni,47.0544,23.42815
Voivodeni,46.7,24.63333
Voivodeni,46.3989,22.03427
Voivodeni,45.77991,24.86146
Voievodeasa,47.79953,25.74939
Voitinel,47.88366,25.75735
Voiteștii din Vale,45.08746,23.42145
Voiteștii din Deal,45.10181,23.44714
Voiteg,45.46889,21.23917
Voita,44.36447,23.38169
Voislova,45.52752,22.45967
Voinigești,45.00725,23.24713
Voiniceni,46.61502,24.52526
Voineşti,47.06667,27.41667
Voinești,46.81977,27.51138
Voineşti,46.56667,27.41667
Voinești,45.40764,27.72094
Voinești,45.30007,25.07225
Voineşti,45.06667,25.25
Voineşti,44.98333,26.6
Voineșița,45.41528,23.96685
Voineasa Mică,44.26667,24.16667
Voineasa,45.41667,23.95
Voineasa,44.28333,24.13333
Voila,45.81839,24.84215
Voetin,45.4437,27.14587
Voiculeasa,44.8092,24.10303
Voicu,44.86667,23.5
Voiceștii din Vale,44.60954,24.30931
Voiceşti,44.6,24.28333
Voicani,44.93333,24.0
Voica,46.56667,23.33333
Voia,46.03688,23.04634
Voia,44.74268,25.20375
Voievoda,43.84126,25.13777
Vodnic,45.24664,21.79764
Vocotești,47.08241,27.46898
Vlângăreşti,44.71667,24.35
Vlăsineşti,47.93333,26.88333
Vlăsia,44.66667,26.2
Vlășcuța,44.54463,24.79631
Vlăsceni,44.58522,25.59931
Vlăsceni,44.5,25.76667
Vlașca,44.39664,27.84865
Vlaşca,46.18333,26.73333
Vlaşca,44.3,24.03333
Vlăjeni,47.35,25.3
Vlăiculești,44.5858,26.66675
Vlaicii de Sus,44.68333,24.65
Vlaici,44.65159,24.65884
Vlăhiţa Nouă,46.35,25.51667
Vlăhiţa,46.35,25.51667
Vlahii,44.2031,27.86703
Vlaha,46.69656,23.45532
Vlăduţeşti,45.05,23.85
Vlăduța,44.62552,24.89592
Vlădulești,44.91566,24.31964
Vlăduleni,44.88857,23.23727
Vlăduleni,44.25714,24.32696
Vlăduleasa,45.63333,27.31667
Vlăduceni,45.13693,24.25051
Vlad Ţepeş,44.35,27.08333
Vlad Țepeș,44.13282,26.13355
Vladomira,47.4194,27.56903
Vlădoi,44.96667,23.05
Vlădoi,45.18333,23.7
Vlădnicuț,47.36335,26.79878
Vladnicu de Sus,46.11466,27.35555
Vladnicu de Jos,46.09687,27.36329
Vlădnicele,46.99806,27.16202
Vladnic,46.44542,27.13816
Vladimir,44.83333,23.56667
Vladimirescu,46.16628,21.40102
Vladimir,44.50232,23.76364
Vlădila Nouă,44.00368,24.40883
Vlădila,44.0,24.4
Vlădiceni,47.13368,27.65553
Vlădiceni,46.93355,26.67962
Vlădiceasca,44.66947,26.09102
Vlădiceasca,44.34813,26.79819
Vlădica,44.50845,23.07272
Vladia,46.63669,27.31401
Vlădeştii de Sus,45.16667,24.91667
Vlădești,45.15,24.91667
Vlădești,46.45334,27.70932
Vlădoșești,46.34581,23.03089
Vlădești,46.30899,23.56063
Vlădeşti,45.85,28.08333
Vlădești,45.1569,24.52982
Vlădeşti,45.11667,24.3
Vlădeni-Mărgineni,44.88333,25.76667
Vlădeni-Fărcăşani,44.86667,25.78333
Vlădeni-Deal,47.5225,26.87295
Vlădeni,45.13333,24.98333
Vlădeni,47.98333,26.16667
Vlădeni,47.92737,26.61062
Vlădeni,47.71667,26.51667
Vlădeni,47.41667,27.33333
Vlădeni,45.76685,25.37242
Vlădeni,45.28224,26.76031
Vlădeni,44.8755,25.77318
Vlădeni,44.61667,27.88333
Vlădășești,44.64992,23.13285
Vlădari,45.18333,26.1
Vlădaia,44.35,23.03333
Vizurești,45.95985,27.33267
Vizurești,44.6404,25.8074
Vizureni,46.08277,27.5941
Vizma,45.92583,21.83542
Viziru,45.01667,27.7
Vizireni,45.04965,27.19693
Vizejdia,45.94233,20.656
Vizantea Răzășească,45.96997,26.81405
Vizantea-Mânăstirească,45.98333,26.78333
Vitomireşti,44.86667,24.4
Vitioara de Sus,45.17958,26.06556
Viţicheşti,44.83333,25.06667
Vitcari,46.36667,22.91667
Vițcani,47.94423,26.21061
Viţău,47.86667,25.61667
Vităneștii de Sub Măgură,45.87414,27.02679
Vitănești,45.88377,27.03897
Vitănești,44.5273,24.69585
Vităneşti,44.0,25.41667
Vița,47.04181,24.15022
Visuia,46.83703,24.29503
Viștișoara,45.6929,24.76291
Vistieru,45.22304,25.70179
Visterna,44.85971,28.77134
Viștea de Sus,45.74554,24.74167
Viștea de Jos,45.79582,24.7238
Viștea,46.8026,23.40218
Vispești,45.09749,26.52222
Vişoi,45.26667,25.05
Vişoi,44.95,23.03333
Vișinii,44.29684,27.1863
Vişineşti,45.1,25.55
Vișinelu,46.73798,24.10194
Vișinari,46.46577,27.703
Vișina Nouă,43.87434,24.4182
Vișina,44.75798,28.84262
Vişina,44.58333,25.33333
Vișina,44.57307,23.12806
Vişina,43.86667,24.45
Vişeu de Sus,47.71667,24.43333
Vișeu de Mijloc,47.71562,24.40661
Vişeu de Jos,47.72558,24.36613
Vișea,46.85641,23.87361
Viscri,46.05522,25.09389
Visca,46.06931,22.6683
Vişani,45.15,27.28333
Vișan,47.11231,27.60808
Vișagu,46.83098,22.83069
Vișag,45.54977,21.81221
Visafolio,46.70479,25.63226
Vârvoru de Jos,44.24415,23.6079
Vârvor,44.22527,23.62387
Virtutea Militară,44.93333,26.01667
Vârț,44.95,23.13333
Vârtopu,44.91349,22.98279
Vârtop,44.20682,23.34869
Vârtop,46.32413,23.09225
Vârtop,43.81872,28.38473
Vârtopu,43.81667,24.4
Vârtoasa,45.11667,24.11667
Vârtoapele de Sus,44.19182,25.20025
Vârtoapele de Jos,44.18333,25.2
Vârtoape,45.76667,23.63333
Vârtina,44.36667,24.06667
Vârteşcoiu,45.73333,27.08333
Vârteşca,47.18333,23.5
Vârteju,45.46071,26.57175
Vârteju,44.35606,25.99183
Vârtej,45.7,26.1
Vârtăneşti,46.36667,22.96667
Vârşolţ,47.2,22.93333
Vârșii Mari,46.34435,23.13134
Vârșii Mici,46.34788,23.11512
Vârși,46.35485,23.07346
Vârși-Rontu,46.33333,23.11667
Vârșești,44.77761,24.6123
Viroaga,43.87166,28.08855
Vârloveni,45.03119,24.59659
Vârlezi,45.9,27.85
Vârleni,44.79276,24.02717
Vârlăneşti,46.46667,27.16667
La Verut,44.88333,21.71667
Virismort,45.96772,22.14557
Vârgolici,48.01667,26.56667
Vârghiş,46.13333,25.53333
Vârfurile,46.31667,22.51667
Vârfurile,44.99265,26.15206
Vârfuri,45.1,25.51667
Vârfureni,45.17902,25.25805
Vârfu Plaiului,47.56667,25.35
Vârfu Dealului,47.6,25.93333
Vârfu Câmpului,47.84566,26.33056
Vârfu,45.4,26.55
Vârf,45.11667,26.5
Vârciorova,45.3271,22.35208
Vârciorova,44.71667,22.48333
Vârciorog,46.96667,22.3
Vipereşti,45.23333,26.46667
Viorica,43.93333,24.91667
Vântuleşti,45.95,23.25
Vintileşti,45.06667,27.56667
Vintileasca,45.6,26.73333
Vintileanca,44.985,26.58005
Vintilă Vodă,45.46667,26.71667
Vintere,46.76883,22.14652
Vința,46.31639,23.22592
Vânju-Mare,44.42528,22.86972
Vânjuleţ,44.44111,22.7925
Vingard,46.01317,23.74696
Vinga,46.01667,21.2
Vinețișu,45.46921,26.33551
Vineți,44.68681,24.56956
Vinețești,46.62965,27.90064
Vineşti,46.01667,22.21667
Vâneşti,44.63333,24.36667
Vinerea,45.88632,23.35289
Vinderei,46.15,27.8
Vânători-Neamţ,47.2,26.31667
Vânătorii Mici,44.49028,25.55889
Vânătorii Mari,44.48898,25.54548
Vânători,46.9,26.4
Vânători,47.75151,26.86986
Vânători,47.3598,26.76423
Vânători,47.23333,27.53333
Vânători,46.9538,22.86396
Vânători,46.62456,21.67332
Vânători,46.23333,24.93333
Vânători,45.73333,27.25
Vânători,45.53333,28.01667
Vânători,44.5909,26.29595
Vânători,44.24278,22.92889
Vânători,43.87769,28.52288
Vânători,43.75248,25.15401
Vânătoreşti,47.8,22.98333
Vânăta,45.05,22.98333
Vima Mică,47.4,23.71667
Vima Mare,47.3817,23.70853
Viluari,45.78333,22.58333
Viltotești,46.37951,27.87716
Vâltori,46.14472,23.21597
Vâlsăneşti,45.18333,24.8
Vâlcica,47.33265,26.63515
Vâlceşti,46.36667,22.91667
Vâlceluţa,45.65,23.01667
Vâlcelele de Sus,44.28461,24.55821
Vâlcelele Bune,45.65799,23.05328
Vâlcelele,45.2,24.23333
Vâlcelele,47.84507,26.45554
Vâlcelele,47.65024,26.10074
Vâlcelele,47.43506,27.36623
Vâlcelele,47.23028,22.48336
Vâlcelele,47.10673,23.59602
Vâlcelele,46.16177,27.33623
Vâlcelele,45.3443,27.34937
Vâlcelele,45.00365,24.70456
Vâlcelele,44.93924,26.38116
Vâlcelele,44.46694,25.57111
Vâlcelele,44.38834,27.15022
Vâlcele,46.29801,26.60005
Vâlcele,46.68638,23.65342
Vâlcele,46.30718,27.12998
Vâlcele,45.85,25.68333
Vâlcele,45.70131,27.14789
Vâlcele,45.67073,23.05364
Vâlcele,45.08692,26.63353
Vâlcele,45.08886,22.98475
Vâlcele,44.28263,24.54376
Vâlcelele,43.78407,28.34265
Vâlceaua,44.96166,23.018
Vâlcea,46.26622,23.16365
Vâlcea,45.75424,25.17908
Vâlcani,45.76667,26.78333
Vâlcăneşti,45.11667,25.93333
Vâlcăneasa,46.36615,22.93817
Văleanca-Vilănești,45.09247,26.50457
Vijuleşti,44.11667,24.18333
Vijoeşti,44.75,23.91667
Vâjâetoarea,45.48333,27.3
Viişoara Moşneni,44.22921,24.13937
Viișoara Mică,48.15371,26.78642
Viișoara,44.23179,24.1119
Viișoara,47.10332,24.44949
Viişoara,46.8,27.86667
Viișoara,46.64254,27.78596
Viişoara,45.23333,26.85
Viişoara,48.16667,26.73333
Viișoara,47.69574,22.29208
Viişoara,47.38333,26.46667
Viişoara,47.38333,22.45
Viişoara,46.93333,26.23333
Viișoara,46.83145,27.362
Viişoara,46.55,23.91667
Viişoara,46.38333,27.88333
Viișoara,46.28325,26.66187
Viişoara,46.28333,24.6
Viișoara,46.23118,26.88458
Viișoara,46.0516,27.09593
Viișoara,45.92085,26.82354
Viișoara,44.99587,24.16287
Viișoara,44.88116,25.4273
Viișoara,44.85459,24.95956
Viişoara,44.23333,24.46667
Viișoara,44.07758,28.19424
Viişoara,43.78333,25.16667
Viilor,46.23756,24.80933
Viile Satu Mare,47.66667,22.95
Viile Noi,44.15,28.6
Viile Jacului,47.1638,23.15695
Viile Iojibului,47.81667,23.15
Viile Dejului,47.16667,23.83333
Viile Apei,47.78109,23.29103
Viile,45.80691,27.94748
Viile,44.162,27.75769
Viile,44.16185,24.93354
Vâgani,46.94855,25.29167
Viforoasa,46.43189,24.80982
Viforâta,45.33366,26.61768
Viforâta,44.96011,25.45796
Viforeni,47.77027,26.94055
Viforeni,46.58122,27.09722
Viezuri,45.16667,24.25
Viezuri,45.05,23.38333
Viezuianu,45.2,24.23333
Viespeşti,44.05,24.65
Vieru,43.88787,25.80974
Vierșani,44.87875,23.5312
Vieraşi,43.91667,24.98333
Vidrișoara,46.34306,22.827
Vidrasău,46.47553,24.4154
Vidra,46.36758,22.88811
Vidra,46.32875,22.51221
Vidra,45.91667,26.9
Vidra,44.26056,26.16972
Vidolm,46.48104,23.51515
Vidin,44.92614,23.51318
Vidimirești,44.85967,22.82538
Videle,44.27806,25.52444
Vidacut,46.33721,24.89612
Victor Vlad Delamarina,45.64056,21.89278
Victoria Mărăşeşti,44.73333,27.41667
Victoria,47.72589,26.80148
Victoria,47.61018,27.1673
Victoria,47.28333,27.58333
Victoria,45.72968,24.7028
Victoria,45.12861,28.9673
Victoria,44.81667,27.61667
Vicșani,47.9376,25.98157
Vicovu de Sus,47.93333,25.68333
Vicovu de Jos,47.9,25.73333
Vicolenii Noi,47.88333,26.78333
Vicolenii Mici,47.88333,26.81667
Vicolenii Mari,47.88333,26.85
Vicoleni,47.87958,26.84826
Vicea,47.45095,23.24101
Vica,45.99516,22.57725
Viașu,44.35417,22.82566
Viacu Mic,45.03333,23.41667
Viacu Mare,45.03333,23.41667
Viezuri,46.0,23.3
Vezendiu,47.574,22.43254
Veza,46.16747,23.9247
Vetrești-Herăstrău,45.8094,26.6623
Vetreşti,45.8,26.65
Vețișoara,44.76313,24.66128
Vetiş,47.8,22.76667
Veteranu,44.15506,28.13162
Vețelu,44.97256,23.98071
Veţel,45.9,22.81667
Veţca,46.35,24.78333
Veța,46.56007,24.72308
Veștem,45.71752,24.23958
Veseuș,46.27456,24.14276
Veseud,45.93333,24.65
Veseud,45.97664,24.19365
Verveghiu,47.31356,23.11027
Verşeşti de Sus,46.43333,26.76667
Verşeşti de Jos,46.45,26.7
Verșești,46.97973,26.48309
Verșești,46.44904,26.70183
Verșeni,47.11294,26.64341
Verneşti,45.21667,26.73333
Vernești,45.20005,24.60678
Vermeș,47.0,24.31667
Vermești,46.42172,26.4766
Vermeş,45.52056,21.65972
Verguleasa,44.65,24.31667
Vereşti,45.11667,24.16667
Vereşti,47.6,26.43333
Vereş,46.46667,26.48333
Vereş,45.23333,26.26667
Verendin,45.07755,22.23917
Verdişoaia,46.86667,27.75
Verdești,46.38226,22.79144
Verdeș,46.55121,27.61581
Verdea,46.01211,26.89382
Verdea,44.6914,24.22793
Vercicani,47.52689,26.57341
Verbiţa,44.3,23.16667
Verbicioara,44.28383,23.18767
Verbia,47.88601,26.15909
Veneţia de Sus,45.85,25.23333
Veneția de Jos,45.87536,25.21294
Veneţia,46.06667,26.26667
Venchi,46.24411,24.74162
Velț,46.23927,24.28108
Velniţa,46.78333,27.7
Velesti,44.60045,23.78919
Velenţa,47.04849,21.94948
Veleni,44.38234,23.30599
Velea,44.28333,25.81667
Vela,44.28333,23.41667
Veja,47.01657,27.15651
Veghiurile,45.45,26.58333
Vedea,44.78333,24.61667
Vedea,44.08333,25.06667
Vedea,43.78333,25.78333
Vechea,46.89039,23.49233
Vecerd,45.98401,24.45549
Văvălucile,45.39456,26.46391
Vatra Veche,45.26667,27.96667
Vatra Târgului,47.2,26.36667
Vatra Satului,45.03333,22.41667
Vatra Moldoviţei,47.65,25.56667
Cotroceni,44.41667,26.06667
Vatra Dornei,47.35,25.36667
Vatra,47.23333,26.73333
Vatra,48.14721,26.53691
Vătişoara,46.16667,22.56667
Vătava,46.96667,24.76667
Vătași,44.44299,25.35693
Vătaşi,44.31667,24.73333
Vătășești,45.11753,24.46063
Vătăşelu,44.36667,23.93333
Vața de Sus,46.1712,22.5706
Vaţa de Jos,46.18333,22.6
Vața,44.75917,24.67118
Văsui,45.86667,26.71667
Vaslui,46.63333,27.73333
Văsoaia,46.25372,22.06364
Vasile Roaită,46.56667,26.91667
Umbrărești-Deal,45.7,27.46667
Vasileni,46.22894,25.27228
Vasile Alecsandri,45.45288,27.80079
Vasile Alecsandri,44.79555,28.50685
Vasilatu,45.33333,24.25
Vasilaţi,44.68333,23.91667
Vasilaţi,44.28778,26.4475
Vasilăcheşti,45.91667,27.3
Vasilache,47.8,26.13333
Văsâieşti,46.43333,26.45
Văsești,46.37878,22.90383
Vășcăuți,47.96763,26.02327
Vaşcău,46.46667,22.46667
Vascani,47.27254,26.87496
Vasca,46.43333,25.18333
Vășad,47.5186,22.2566
Vărzaru,44.93795,24.7767
Vărzăroaia,45.15,24.83333
Vărzarii de Sus,46.47425,22.51656
Vărzarii de Jos,46.48971,22.50047
Vărzari,47.20206,22.4633
Varviz,47.22488,22.43855
Varvata,47.61249,26.00015
Vărtăneşti,46.38333,22.95
Vărsături,45.03333,23.33333
Vărsătura,45.78874,27.0445
Vărsătura,45.22557,27.93236
Vărşandu Vechi,46.61667,21.35
Vărşandu Nou,46.61667,21.35
Vărșand,46.6182,21.34455
Vărşag,46.51667,25.35
Vargatac,46.75474,25.63223
Varodia,44.52872,23.10572
Varnița,46.02291,21.80835
Varnița,45.97126,26.96357
Varnița,44.80679,25.9453
Vărmaga,45.94243,23.01307
Varlaam,45.50925,26.44462
Varlaam,44.2447,26.09098
Variașu Mic,46.29334,21.18277
Variașu Mare,46.27598,21.17281
Variaş,46.01667,20.95
Vărgata,46.56667,24.8
Vărd,45.94603,24.6023
Vărbilău,45.18333,25.95
Vărbilău,44.55,26.43333
Vărbila,45.04654,26.19691
Văratici,46.28333,26.65
Văratici,44.9,24.7
Văratici,45.1569,24.06311
Văratica,45.33651,24.28143
Văratic,46.56667,23.35
Văratic,46.38333,27.43333
Văratecu,44.96667,24.95
Văratecu,45.15,24.43333
Văratec,45.66667,22.86667
Văratec,47.63988,26.40312
Varatec,47.14356,26.27652
Vărăştii de Sus,44.6,26.21667
Vărăştii de Jos,44.6,26.21667
Vărăşti,44.61667,26.2
Vărăşti,44.23778,26.24861
Vărăști,44.21244,26.97188
Vărășeni,46.76781,22.21318
Varasău,47.16256,22.26813
Vărărie,47.48333,26.36667
Vărai,47.38618,23.45108
Vărădia de Mureş,46.01667,22.15
Vărădia,45.07833,21.54694
Var,47.23519,23.3003
Var,45.44837,22.30513
Vaoturi,47.65,24.66667
Vanvucești,46.47973,22.72206
Vameșu,45.40126,27.80138
Vameş-Odriheiu,46.4,24.56667
Vameș,45.53408,27.70728
Vămei,47.43333,26.58333
Vama Veche,43.75,28.56667
Vama Seacă,46.34647,23.94196
Vama Marga,45.52252,22.51556
Vama Fişer,47.4,26.73333
Vama Buzăului,45.59668,25.99359
Vama,47.4,26.73333
Vama,47.83333,23.4
Vama,47.56667,25.68333
Vama,47.11599,27.24336
Văluţa de Jos,44.63333,23.68333
Văluța,44.65312,23.69409
Vălureni,46.50028,24.54165
Valu lui Traian,44.16667,28.46667
Valter Mărăcineanu,44.23704,25.86575
Văliug,45.23333,22.03333
Vălișoara,47.37897,23.4028
Vălișoara,46.66579,23.49546
Vălișoara,46.38736,23.56441
Vălișoara,46.05858,22.99607
Vălişoara,46.05,22.85
Vălișoara,45.3179,22.28805
Vălioara,45.61607,22.79313
Văleni-Stânişoara,47.38333,26.0
Văleni-Podgoria,44.85755,24.9893
Vălenii Șomcutei,47.47291,23.45138
Vălenii Lăpușului,47.40573,23.78592
Vălenii de Sus,44.7,23.4
Vălenii de Mureș,46.89274,24.79793
Vălenii de Munte,45.18333,26.03333
Vălenii de Arieş,46.5,23.66667
Vălenii,46.89409,27.28486
Vălenii,46.44584,24.648
Văleni-Dâmbovița,45.16667,25.18333
Văleni,46.90291,26.38945
Văleni,44.73333,25.98333
Văleni,47.78559,24.01625
Văleni,47.2291,23.44689
Văleni,47.03104,26.68846
Văleni,46.78406,23.90433
Văleni,46.78153,23.03426
Văleni,46.74733,27.7596
Văleni,46.6934,27.07769
Văleni,46.66276,24.27124
Văleni,46.46612,27.07758
Văleni,46.43341,27.28289
Văleni,46.38454,27.84501
Văleni,46.26667,27.43333
Văleni,46.26759,25.33052
Văleni,46.27764,23.15639
Văleni,46.18891,22.6861
Văleni,46.12039,24.14145
Văleni,46.09301,23.4273
Văleni,46.07145,27.15777
Văleni,45.95657,27.09447
Văleni,45.96034,24.96832
Văleni,45.98598,23.22234
Văleni,45.75,23.2
Văleni,45.26339,24.53678
Văleni,45.08323,24.11657
Văleni,44.79172,23.83313
Văleni,44.75,25.66667
Văleni,44.74088,23.3867
Văleni,44.29573,24.30604
Văleni,44.23333,24.78333
Văleni,44.02051,27.87799
Valea Zidului,44.96667,26.13333
Valea Zălanului,46.01136,25.75539
Valea Voineşti,45.85,26.18333
Valea Vistierului,45.11667,26.61667
Valea Vișeului,47.91203,24.15842
Valea Vinului,47.71667,24.43333
Valea Vinului,47.71667,23.18333
Valea Vinului,47.4802,24.8303
Valea Vânţului,46.56667,23.8
Valea Vințului,46.01764,23.45588
Valea Viilor,47.18333,24.18333
Valea Viilor,47.1,24.2
Valea Viilor,46.08333,24.28333
Copalnic-Deal,47.51135,23.65317
Valea Viei,45.3101,26.34892
Valea Viei,44.97524,24.36388
Valea Viei,44.741,23.33442
Valea Verzei,45.39525,26.63137
Valea Verde,46.31118,22.94979
Valea Vaselor,45.2,24.38333
Valea Văleni,44.7852,23.83801
Valea Vai de Ei,44.66667,24.41667
Valea Vadului,46.5539,23.4259
Valea Uzului,46.28333,25.86667
Valea Uțului,46.34965,22.82258
Valea Ursului,45.11667,24.3
Valea Ursului,47.13626,27.49221
Valea Ursului,46.81667,27.08333
Valea Ursului,45.46378,26.64966
Valea Ursului,44.98725,22.73032
Valea Ursului,44.8894,24.77108
Valea Ursului,44.79897,23.97686
Valea Ursului,44.59005,23.05547
Valea Ursoii,44.95847,26.175
Valea Urloii,45.0098,26.28457
Valea Urieșului,46.63306,24.0892
Valea Ungurului,47.93013,23.88936
Valea Ungurului,45.61667,22.95
Valea Ungurului,46.80499,24.48055
Valea Ungurașului,47.07645,24.11503
Valea Unghiului,45.25,24.55
Valea Unghiului,45.12278,26.42227
Valea Ungei,44.43333,23.8
Valea Ulieșului,46.73657,24.36881
Valea Uleiului,45.18195,24.67838
Valea Ugra,46.52528,25.97668
Valea Udriştii,44.66667,23.1
Valea Turcilor,44.56667,23.28333
Valea Țupilor,46.26334,23.26362
Valea Tocii,45.31882,26.03295
Valea Tisei,47.65,24.66667
Valea Târsei,45.17711,25.63323
Valea Târnei,47.12517,22.53019
Valea Târgului,46.65507,27.6545
Valea Tânoasă,46.65,23.95
Valea Timișului,45.34891,22.26592
Valea Ţiganilor,44.9,24.0
Valea Teliului,45.7,25.85
Valea Teiului,44.5609,23.15571
Valea Teilor,45.1115,28.48801
Valea Teancului,45.18333,26.7
Valea Ţapului,43.96667,27.73333
Valea Șurii,46.63676,24.05261
Valea Surduc,46.9,24.15
Valea Şultă,46.45,25.85
Valea Suliţei,45.41667,24.31667
Valea Stupinii,45.2682,26.14428
Valea Strâmbă,46.69429,25.59956
Valea Străjerilor,47.51667,25.46667
Valea Stânii,47.53333,25.56667
Valea Stânii,44.98672,24.96468
Valea Stânii,44.25138,26.61636
Valea Stânei,47.55314,25.16312
Valea Stânei,45.4741,26.78255
Valea Stâlpului,45.21196,26.01541
Valea Stejarului,46.61667,27.4
Valea Stejarului,44.91667,23.85
Valea Stejarului,47.87441,23.98953
Valea Stejarului,45.86667,21.56667
Valea Ștefanului,45.36844,26.54257
Valea Stănişoara,47.45,26.1
Valea Stanciului,43.98333,23.86667
Valea Spinului,47.78333,24.25
Valea Șoșii,46.4618,26.54992
Valea Soarelui,44.02882,24.27635
Valea Slimnicului,45.93333,24.08333
Valea Sânpetrului,46.68213,24.26333
Valea Sânpetrului,46.62258,24.28666
Valea Sânmartinului,46.73333,24.33333
Valea Sângeorgiului,45.74538,23.06383
Valea Sângătinului,45.88333,23.85
Valea Siliștei,46.74529,27.83118
Valea Siliștii,45.19027,24.90731
Valea Sicheviței,44.71026,21.8592
Valea Sibiciului,45.36331,26.38016
Valea Șesii,46.27545,23.18019
Valea Şerpilor,45.01667,23.08333
Valea Seman,45.01074,26.30122
Valea Secii,44.7,24.46667
Valea Secăturii,46.3,23.53333
Valea Seacă,47.51667,25.55
Valea Seacă,45.28333,26.35
Valea Seacă,45.26667,26.26667
Valea Seacă,44.98333,26.23333
Valea Seacă,48.0808,23.16489
Valea Seacă,47.29219,26.66876
Valea Seacă,47.13944,26.29956
Valea Seacă,46.75109,27.97621
Valea Seacă,46.74536,24.40753
Valea Seacă,46.46475,26.88054
Valea Seacă,46.24281,27.04594
Ştefan Cel Mare,46.20526,26.85488
Valea Seacă,46.08446,26.11993
Valea Seacă,45.10393,26.26778
Valea Seacă,44.41081,26.8977
Valea Seacă,44.16667,28.43333
Valea Scurtă,46.10391,26.19728
Valea Scrudei,47.71667,24.43333
Valea Screzii,45.2942,26.18303
Valea Șchiopului,45.44037,26.88883
Valea Scheiului,44.93761,24.47694
Valea Scheilor,44.96667,26.13333
Valea Scheilor,45.07459,26.40184
Valea Satului,44.9,24.58333
Valea Satului,46.95346,27.5482
Valea Satului,44.44784,23.90926
Valea Sasului,45.11667,24.68333
Valea Sasului,46.82272,24.48454
Valea Sasului,46.28463,24.02867
Valea Șesii,46.3773,23.23859
Valea Sării,45.4,26.55
Valea Sării,45.87686,26.79873
Valea Săracă,44.96667,26.13333
Valea Șapartocului,46.20631,24.85021
Valea Sapartocului,46.15,24.9
Valea Sălciilor,45.19795,26.6107
Valea Salciei,46.45665,27.19398
Valea Salciei,45.49622,26.82361
Valea Sadului,45.16667,23.38333
Valea Rusului,44.37173,27.00708
Valea Runi,47.83333,24.23333
Valea Rumâneştilor,45.26667,25.05
Valea Rotundă,46.40696,25.32745
Valea Roșie,44.7964,21.81628
Valea Roșie,44.17755,26.63457
Valea Roatei,45.30535,26.47252
Valea Rizii,45.03793,24.89998
Valea Râului,44.93889,24.31705
Valea Râmnicului,45.36395,27.04197
Valea Rece,46.58333,26.0
Valea Rece,46.62082,25.95827
Valea Rece,46.57107,24.33606
Valea Rea,45.36667,26.31667
Valea Rea,45.0,25.73333
Valea Rea,44.5,23.61667
Valea Rea,45.83333,23.26667
Valea Ravensca,44.72563,21.85826
Valea Raului,47.71667,24.43333
Valea Ratei,45.41555,26.89721
Valea Rajkó,46.53333,25.96667
Valea Răii,45.06667,24.33333
Valea Racului,47.36267,26.87691
Valea Racilor,44.77205,23.25414
Valea Răchitei,44.75973,21.87306
Valea Puțului Merei,45.1595,26.66789
Valea Puţului-Lipia,45.15,26.66667
Valea Puţului,45.25,26.75
Valea Putnei,47.48547,25.37691
Valea Purcarului,45.31303,26.55273
Valea Purcăriei,44.81667,23.46667
Valea Purcăreţ,47.2,23.53333
Valea Prunişorului,44.48333,22.91667
Valea Presnei,44.35145,26.71976
Valea Poștei,44.32583,25.27537
Valea Porumbului,44.48333,22.91667
Valea Porcului,47.73333,24.36667
Valea Porcului,46.18333,23.05
Valea Porcului,45.46667,26.65
Valea Porcului,44.91667,24.08333
Valea Popii,46.86191,27.41276
Valea Popii,45.09253,25.0224
Valea Popii,44.96447,26.13077
Valea Popii,44.86726,25.08668
Valea Popii,44.16193,26.5473
Valea Ponor,46.13333,22.51667
Valea Pomilor,47.31889,22.95393
Valea Pojarului,44.9323,23.727
Valea Poienii,46.22521,23.14271
Valea Poienii,46.06956,22.63867
Valea Poenii,47.65,24.66667
Valea Poenii,45.13333,25.63333
Valea Poienei,47.41667,26.58333
Valea Poenii,47.18777,24.63651
Valea Poienii,44.96382,26.16587
Valea Poienii,44.74462,23.05286
Valea Poienari,45.21667,25.05
Valea Podului,45.1,24.95
Valea Podului,45.91667,24.16667
Valea Plopului,45.29585,26.16755
Valea Plopilor,44.23974,25.82007
Valea Pietrei,45.00963,26.21968
Valea Petrişului,46.93333,24.8
Valea Petrii,45.35,23.23333
Valea Petrii,44.66667,22.88333
Valea Petrii,44.58302,23.09359
Valea Peştelui,47.71667,24.43333
Valea Perilor,44.58333,23.01667
Valea Perilor,44.84731,22.92148
Valea Pechii,45.19053,25.01261
Valea Pateşti,45.31667,26.03333
Valea Părului,45.36374,26.77706
Valea Părului,43.91727,25.46589
Valeapai,45.49175,21.72395
Valea Pădurii,46.61969,24.0537
Valea Pădurii,46.13333,22.9
Valea Orlii,45.03333,23.98333
Valea Orlei,44.97089,26.12477
Valea Orevița,44.69127,21.92505
Valea Oprişeni,46.56667,23.8
Valea Oprii,45.16386,25.70547
Valea Oilor,47.24375,27.10173
Valea Oanei,46.66983,27.431
Valea Nucului,45.45,26.58333
Valea Nucului,45.25782,26.73003
Valea Nucetului,45.01173,26.26163
Valea Nucarilor,45.03333,28.93333
Valea Nicovani,44.96248,26.18987
Valea Nenii,44.88557,25.08938
Valea Negrilesii,46.23697,23.21706
Valea Neagului,44.96667,24.78333
Valea Neagră,47.83333,24.23333
Valea Neagră,47.76432,23.61307
Valea Neagră,45.81312,26.63643
Văleanca,45.08333,26.51667
Valea Nandrului,45.79745,22.83844
Valea Nandrii,45.01809,24.88155
Valea Nacului,46.18109,27.06254
Mușcel,45.33333,26.3
Valea Muscelului,45.16179,24.76593
Valea Muierii de Sus,44.58333,23.65
Valea Muierii de Jos,44.55801,23.67855
Valea Motrului,44.69823,23.11703
Valea Moşului,45.0,24.75
Valea Moșneagului,46.73081,27.21932
Valea Morii,47.73333,24.36667
Valea Morii,45.18333,25.65
Valea Morii,47.4962,22.54323
Valea Morii,46.35928,22.96219
Valea Morii,46.35,27.21667
Valea Morii,45.12136,25.48774
Valea Moldovei,47.46667,26.03333
Valea Maciului,46.34085,22.82851
Valea Minișului,45.02077,21.90475
Valea Miniscului,44.91667,22.0
Valea Milcovului,45.78347,26.85519
Valea Mijlocie,47.25,23.4
Valea Mighindoalei,45.96667,24.26667
Valea Mieilor,44.96831,26.22205
Valea Mică,46.71439,27.13722
Valea Mică,46.39123,26.94495
Valea Mică,46.07887,23.27841
Valea Mică,45.78164,25.99314
Valea Mică,45.60068,26.92014
Valea Mică,44.77598,23.10051
Valea Mică,44.7,21.85
Valea Merilor,46.4487,27.20102
Valea Merilor,44.47169,24.65611
Valea Mărului,46.73964,27.20567
Valea Mărului,45.83866,27.69138
Valea Mare Veche,44.46667,24.45
Valea Mare Pravăț,45.29171,25.0925
Valea Mare-Podgoria,44.88513,24.90613
Valea Mare de Criș,46.99302,22.5741
Valea Mare de Criș,46.20612,22.70132
Valea Mare de Codru,46.80819,22.0806
Valea Mare-Bratia,45.07266,24.95078
Valea Mare,45.51667,22.43333
Valea Mare,45.06667,24.95
Valea Mare,47.46667,24.95
Valea Mare,47.05445,26.56965
Valea Mare,46.83224,27.32812
Valea Mare,46.81398,27.45954
Valea Mare,46.80292,24.39289
Valea Mare,46.7258,27.11886
Valea Mare,46.66349,27.49034
Valea Mare,46.63762,24.30019
Valea Mare,46.62083,27.25994
Valea Mare,46.45,26.88333
Valea Mare,46.41667,24.96667
Valea Mare,46.36667,23.2
Valea Mare,46.32094,22.36023
Valea Mare,46.02211,23.26071
Valea Mare,45.99004,22.23838
Valea Mare,45.76667,26.0
Valea Mare,45.50337,21.80528
Valea Mare,45.11263,23.08004
Valea Mare,45.05949,25.60907
Valea Mare,45.06396,25.15681
Valea Mare,45.01451,23.88994
Valea Mare,44.93783,24.23883
Valea Mare,44.87659,25.07083
Valea Mare,44.78333,25.23333
Valea Mare,44.7,21.85
Valea Mare,44.66667,24.0
Valea Mare,44.54928,23.69536
Valea Mare,44.46667,24.43333
Valea Marcului,44.51597,23.24234
Valea Mantei,44.97632,26.16329
Valea Mânăstirii,44.82345,22.93577
Valea Mănăstirii,46.30146,23.52287
Valea Mănăstirii,45.0256,25.0123
Valea Malului,47.65,24.66667
Valea Mlacii,46.2353,23.25837
Valea Măgurii,47.31667,24.75
Valea Măgurei,45.19457,24.5562
Valea Măgherușului,47.1153,24.40027
Valea Măcrișului,44.74379,26.83015
Valea Măceșului,45.39504,24.00761
Valea Lupului,47.1792,27.49965
Valea Lupului,46.86667,24.48333
Valea Lupului,46.48544,27.54844
Valea Lupului,46.40421,27.23377
Valea Lupului,46.01667,24.15
Valea Lupului,45.47169,23.12633
Valea Lupului,45.351,26.34546
Valea Lupșii,46.38072,23.22753
Valea Lungului,44.35141,23.66728
Valea Lungă-Vârfuri,45.06667,25.55
Valea Lungă Română,45.75533,21.95479
Valea Lungă Ogrea,45.05978,25.59024
Valea Lungă Mică,46.56667,23.8
Valea Lungă Maghiară,46.56667,23.8
Valea Lungă Maghiară,45.75,21.95
Valea Lungă Gorgota,45.06466,25.5595
Valea Lungă-Cricov,45.06528,25.58793
Valea Lungă,47.18683,27.64911
Valea Lungă,47.16673,23.51409
Valea Lungă,46.18971,24.37064
Valea Lungă,46.15166,27.8315
Valea Lungă,46.12592,24.04541
Valea Lungă,46.08333,22.78333
Valea Lungă,45.98523,22.68566
Valea Lungă,44.81052,24.05214
Valea Luncii,47.16761,24.02744
Valea lui Stroe,44.51667,23.48333
Valea lui Stan,45.34883,24.21397
Valea lui Stan,44.7,23.63333
Valea lui Soare,44.15,26.73333
Valea lui Pavel,46.51593,25.21682
Valea lui Paul,46.11667,23.21667
Valea lui Pătru,44.4723,23.52128
Valea lui Opriş,47.2,23.86667
Valea lui Noe,46.4,27.13333
Valea lui Mihai,47.51667,22.15
Valea lui Mihai,46.02619,23.46997
Valea lui Maș,45.21503,24.76104
Valea lui Lalu,45.45899,26.86632
Valea lui Ivan,45.61667,24.05
Valea lui Ion,46.7035,26.62499
Valea lui Ioan,45.51667,23.11667
Valea lui Enache,45.08293,24.64468
Valea lui Dragomir,45.4,26.63333
Valea lui Darie,46.44926,27.94296
Valea lui Dan,45.08022,25.59209
Valea lui Cati,46.64532,23.9436
Valea lui Bosie,46.71007,27.97356
Valea lui Antaloc,46.56898,25.96683
Valea lui Alb,44.70721,24.31471
Valea Loznei,47.26081,23.49466
Valea Leurzii,45.16186,25.48533
Valea Leșului,47.33069,23.47984
Valea Lespezii,45.34475,26.04266
Valea Legii,46.85,24.08333
Valea Lată,46.65,23.95
Valea Largă-Sărulești,45.50988,26.77883
Valea Largă,46.62257,24.07758
Valea Largă,46.36637,23.40071
Valea Largă,45.50968,26.88391
Valea Largă,45.16205,25.25311
Valea Largă,44.96371,26.1982
Valea Komjath,46.53333,25.96667
Ștefan Odobleja,44.57583,22.83028
Valea Izvoarelor,46.43855,24.37597
Valea Itului,45.18333,25.08333
Valea Iscadrei,47.71667,24.43333
Valea Întunecoasă,46.56125,25.95365
Valea Întunecoasă,46.56667,23.8
Valea Îndărăt,45.19891,25.05624
Valea Ilei,47.65,24.66667
Valea Ierii,46.65,23.35
Valea Iclandului,46.53439,24.25391
Valea Iaşului,45.18333,24.71667
Valea Iarului,44.98333,26.23333
Valea Humei,44.98333,26.23333
Valea Hranei,47.2247,23.55332
Valea Hotarului,47.65,24.66667
Valea Hotarului,45.75,24.2
Valea Hotarului,45.36667,26.76667
Valea Hotarului,45.321,25.17095
Valea Holhorii,46.31889,23.19926
Valea Hogei,46.70446,27.27454
Valea Hobiţei,44.75,23.1
Valea Haret,44.96667,26.13333
Valea Gurunelelor,45.08333,24.31667
Valea Groșilor,47.23972,23.7451
Valea Grecului,46.71985,28.10123
Valea Grajdului,47.87646,26.74573
Valea Grădiștei,44.8861,23.79189
Valea Goblii,45.99905,23.4653
Valea Glodului,47.50993,26.44857
Valea Glodului,46.64699,24.08481
Valea Glodului,45.1,25.28333
Valea Gârboului,47.20622,23.92315
Valea Gârbea,46.53555,25.94379
Valea Giogești,46.30778,23.28376
Valea Gardului,45.18333,26.05
Valea Gardului,45.01667,26.31667
Valea Furcii,45.96667,24.26667
Valea Frumoasă,46.96667,25.71667
Valea Frăției,46.64515,24.06852
Valea Foii,45.3,25.06667
Valea Florilor,46.66464,23.86035
Valea Fântânilor,44.50176,23.48444
Valea Fântânei,45.35,26.41667
Valea Fântânei,45.40547,26.52186
Valea Fânaţului,46.61448,27.11449
Valea Fetiţei,47.25,23.4
Valea Fetei,44.63166,24.33995
Valea Faurului,45.19975,24.78775
Valea Fata,46.45,25.85
Valea Enei,46.80042,27.15055
Valea Dulce,45.11428,26.20787
Valea Dragului,44.21222,26.30361
Valea Drăganului,46.89891,22.83028
Valea Dragă,46.45,26.88333
Valea Dobârlăului,45.7305,25.93501
Valea Dindărăt Mică,45.2,25.05
Valea Dâljii,45.51414,22.88626
Valea de Sus,46.93333,25.35
Valea de Sus,46.43333,26.86667
Valea de Sus,46.55,22.53333
Valea Deșului,44.85544,23.57032
Valea de Peşti,45.33333,23.15
Valeadeni,45.40016,22.01337
Valea de Jos,46.93333,25.35
Valea de Jos,46.45,26.9
Valea de Jos,46.57211,22.48626
Valea de Casă,45.2,24.23333
Valea de Brazi,45.31798,23.08245
Valea Danului,45.18333,24.65
Valea Dăii,46.22569,24.89612
Valea Dadei,44.8263,25.27431
Valea Dacilor,44.19495,28.31776
Valea cu Stuf,44.83333,26.93333
Valea Cucului,45.06525,26.22793
Valea Cucii,44.96491,24.48411
Valea cu Apă,46.16667,27.41667
Valea cu Apă,44.84553,23.25705
Valea Crişului,46.21667,24.8
Valea Crișului,46.95098,22.64372
Valea Crişului,45.91667,25.76667
Valea Cristolţului,47.25,23.4
Valea Crângului,44.99385,26.25934
Valea Cricovului,45.11525,26.24873
Valea Cotoarei,45.49812,26.6722
Valea Cotești,45.63446,27.07581
Valea Coșuștei,44.70729,22.91573
Valea Corbului,45.18333,25.65
Valea Corbului,44.91141,25.03479
Valea Copcii,44.63544,22.76031
Comisoaia,45.3,26.91667
Valea Coma,46.28333,23.28333
Valea Colceagului,44.63333,26.46667
Valea Codrului,46.33333,26.58333
Valea Cocești,46.29665,23.2887
Valea Ciurenilor,47.22517,23.52211
Valea Ciungii,47.83333,24.23333
Valea Ciuciului,46.40802,23.99439
Valea Cireșului,44.16699,25.56437
Valea Cireșoii,47.15074,24.02623
Valea Ciorii,44.71667,27.56667
Valea Cânepei,46.80972,28.12389
Valea Cânepii,45.08333,27.81667
Valea Câmpului,46.31667,26.5
Valea Chioarului,47.43333,23.48333
Valea Cheii,45.15594,24.2491
Valea Cetățuia,45.21728,25.20498
Valea Cerului,47.23789,22.4964
Valea Ceplei,44.7,23.4
Valea Cătinei,45.29228,26.23574
Valea Caselor,47.65,24.66667
Valea Caselor,47.53333,25.56667
Valea Caselor,47.13333,22.26667
Valea Caselor,45.35,25.16667
Valea Caselor,45.26667,25.0
Valea Caselor,46.72038,27.21011
Valea Caselor,46.39836,23.03362
Valea Caselor,44.94697,24.12416
Valea Caselor,44.80052,25.24704
Valea Caselor,44.65597,24.23601
Valea Căşeiului,47.2,23.86667
Valea Casei,46.36667,27.43333
Valea Caprei,44.9,24.7
Valea Caprei,45.15,26.46667
Valea Capelei,46.5593,25.98997
Valea Calului,45.227,24.59187
Valea Călugărească,44.96667,26.15
Valea Caldă,46.56667,23.78333
Valea Caldă,46.84985,24.13945
Valea Buţii,45.08333,24.78333
Valea Bună,44.63598,23.1108
Valea Bulzului,46.06667,23.28333
Valea Bujorului,44.07712,25.83348
Valea Budului,46.5962,26.81901
Valea Bucurului,46.32201,23.37049
Valea Brodulă,46.83333,25.88333
Valea Brazilor,45.0532,24.68192
Valea Brătia,44.93333,22.9
Valea Bradului,46.51667,25.13333
Valea Bradului,46.15136,22.82883
Valea Bradului,46.83333,25.88333
Valea Bradului,46.56667,25.01667
Valea Bradului,45.16501,25.61156
Valea Bradului,45.09744,25.00194
Valea Brădetului,45.32654,26.03606
Valea Bourei,47.42507,26.50644
Valea Boului,45.38333,26.4
Valea Boțului,46.52011,27.17557
Valea Botei,45.11667,26.63333
Valea Borului,45.30584,26.0376
Valea Bortoş,46.6,26.03333
Valea Boroș,46.54739,25.98849
Valea Borcutului,47.37483,24.65293
Valea Bolvașnița,44.94602,22.39019
Valea Boierească,44.98107,24.72919
Valea Boierească,44.86667,24.93333
Valea Boierească,44.83333,24.96667
Valea Bocului,46.56667,23.35
Valea Bocşei,46.13333,22.51667
Valea Bobului,45.00693,26.22924
Valea Bistriţei,47.58333,25.13333
Valea Bistrii,46.38009,23.0686
Valea Bistrei,45.52559,22.42738
Valea Bisericii,44.68333,22.96667
Valea Bisericii,44.75663,23.02651
Valea Bisericii,44.58871,26.56718
Valea Bârzavei,45.33333,22.0
Valea Bârnii Vale,46.28333,23.28333
Valea Bârnii,46.26667,23.33333
Valea Bârluţeşti,46.28333,23.28333
Valea Beciului,45.49061,27.04247
Valea Banului,46.9,22.13333
Valea Bancului,47.39852,25.1915
Valea Banului,45.33863,26.50877
Valea Bălcească,44.99027,24.42871
Valea Badii Piţigaia,45.06667,25.01667
Valea Badii,44.98333,24.88333
Valea Bădenilor,45.26273,25.19434
Valea Babei,45.18128,24.49828
Valea Babei,46.33333,27.33333
Valea Babii,45.62417,22.57375
Valea Arsului,46.09361,22.86999
Valea Arinilor,46.49793,26.50918
Valea Arini,47.12694,26.29377
Valea Argovei,44.35,26.78333
Valea Anilor,44.36466,22.92277
Valea Anei,45.30692,26.19622
Valea Alunului,44.69,22.95083
Valea Alunișului,44.94822,24.14508
Valea Albă,47.07509,26.53128
Valea Albă,46.25411,23.20845
Valea Albă,44.1,25.6
Valea Agrișului,46.57012,23.55913
Valea Adâncă,47.1316,27.55576
Valea Abruzel,46.26385,23.1368
Valea,46.56329,24.79691
Valea,46.07104,22.56318
Valea,45.10804,25.26147
Valea,44.72242,23.20294
Vale,46.9491,25.37869
Vale,47.08127,23.72177
Valea,46.7561,24.37865
Vale,46.25,23.2
Vale,45.78188,23.89549
Valchid,46.16981,24.5831
Valcea,45.18333,24.5
Valcău de Sus,47.1145,22.72988
Valcău de Jos,47.11667,22.73333
Vălcani,46.00357,20.39865
Vălari,45.1588,23.2343
Vălari,45.68339,22.73534
Vălanii de Beiuș,46.70148,22.24627
Vălani de Pomezeu,46.78657,22.32506
Vălani,46.63333,22.03333
Văjeşti,44.71667,24.93333
Văile,47.65,24.66667
Văi,46.34871,23.21035
Vaidomir,44.21667,27.15
Vaideiu,46.49534,24.32084
Vaidei,45.86727,23.30076
Vaidei,45.18633,23.27132
Vaideeni,45.16667,23.93333
Vaidacuța,46.41906,24.52626
Vaida-Cămăraș,46.82823,23.94724
Vaida,47.25279,21.99477
Văianu,44.93694,22.9625
Văgiuleşti,44.71667,23.08333
Văgaș,48.06507,23.25991
Văieni,45.03333,22.83333
Vadu Vlădichii,47.81667,25.95
Vadu Vejei,46.99608,27.24399
Vadu Stanchii,44.52793,25.48607
Vadu Sorești,45.315,26.87748
Vadu Săpat,45.03973,26.387
Vadu Roşca de Jos,45.61667,27.41667
Vadu Roșca,45.63864,27.45716
Vadurile,46.37319,27.54544
Vaduri,46.92763,26.26087
Vădurele,47.33183,23.34172
Vădurele,46.93319,26.25074
Vădurele,46.72958,26.57173
Vadu Paşii,45.16667,26.9
Vadu Părului,44.93132,26.2094
Vadu Oii,44.74191,27.8865
Vadu Oii,45.53419,26.47544
Vadu Nou,45.15,26.88333
Vadu Negrilesei,47.38494,25.84109
Vadu Moţilor,46.4,22.96667
Vadu Moldovei,47.38333,26.36667
Vadu Lat,44.34493,25.67627
Vadu Izei,47.93333,23.88333
Vadu Izei,47.88821,23.93209
Vadu Dobrii,45.69187,22.54521
Vadu Crişului,46.98333,22.51667
Vadu Anei,44.42301,26.35529
Vadu,46.60812,24.78188
Vadu,45.58685,22.94195
Vadu,44.45145,28.73642
Vădeni,45.06667,23.3
Raiu,46.2399,28.01781
Vădeni,46.06656,28.08623
Vădeni,45.36667,27.93333
Vădăstriţa,43.85,24.33333
Vădastra,43.86667,24.36667
Vădaș,46.4559,24.81939
Vad,47.52146,23.71161
Vad,47.2,23.75
Vad,47.02566,26.55156
Vad,45.7934,25.15088
Văculeşti,47.88333,26.41667
Văceşti,44.33333,25.23333
Văceni,44.06837,25.53592
Văcăşti,46.56667,23.35
Văcăreşti,44.9,24.4
Văcărești,46.46584,25.79849
Văcăreşti,44.85,25.48333
Văcărești,44.13448,25.02123
Văcăreni,45.32415,28.19512
Văcăreasca,44.84695,26.73028
Văcarea,45.11335,25.04938
Văcarea,44.9669,23.30064
Uzunu,44.14716,25.96719
Uzlina,45.07345,29.22681
Uzinele Vlăhiţa,46.35,25.51667
Uzinele Sigismund,46.45,25.4
Uzinele Noi,45.38333,21.76667
Utvin,45.71298,21.13011
Utashazu,46.56667,24.91667
Ususău,46.07063,21.81371
Uşurei,44.96667,23.3
Ușurei,44.63151,24.09201
Uspensia Mânăstire,44.83333,28.56667
Uspensia,44.83333,28.56667
Uscăci,44.60846,23.58824
Urzicuţa de Sus,44.01667,23.53333
Urzicuţa,44.01667,23.55
Urzici,46.78333,26.78333
Urziceni,47.73333,22.4
Urziceni,44.71667,26.63333
Urziceanca,44.63052,25.8424
Urzicari,45.1,24.3
Urzica Mare,44.01615,23.59722
Urzica,44.98333,23.35
Urzica,44.91257,23.83655
Urvişu de Beliu,46.51667,22.08333
Urviș de Beiuș,46.69296,22.1586
Urvind,47.06749,22.28388
Urtica,45.78333,23.68333
Ursoaia,47.27477,27.38595
Ursoaia,46.68888,26.95737
Ursoaia,46.65041,27.40424
Ursoaia,46.54949,24.22471
Ursoaia,45.77681,26.79984
Ursoaia,45.24697,26.44878
Ursoaia,44.98931,24.66572
Ursoaia,44.85982,24.12122
Ursoaia,44.813,23.21012
Ursoaia,44.5332,23.40337
Ursoaia,44.53333,23.18333
Ursoaia,44.43474,24.69524
Urșița,47.01787,27.40759
Ursiei,45.63333,23.16667
Ursici,45.60501,23.09071
Urși,44.99404,24.08895
Urși,44.75567,24.44422
Urseni,47.35,25.25
Urseni,45.69269,21.30993
Urseiu,45.12842,25.56265
Urseiţa,44.8,23.21667
Ursați,45.07788,23.23225
Ursăţei,45.08333,23.2
Ursari,44.73333,26.6
Ursari,46.55,27.61667
Ursărești,47.059,26.89553
Urșani,45.17164,23.96235
Ursad,46.6816,22.09192
Ursa,43.78783,24.63787
Uroi,45.86412,23.03425
Urmeniș,47.52357,23.19626
Urmeniş,46.76667,24.36667
Urluiu,43.95487,25.05387
Urluiasca,44.66667,24.38333
Urluia,44.1043,27.9146
Urluiești,45.19832,24.52208
Urlueni,44.48445,24.77794
Urlucea,44.86721,25.03236
Urlichioi,44.01667,28.53333
Urleta,45.08732,25.79354
Urlești,45.89412,27.79239
Urleasca,45.13697,27.64736
Urlătoarea,45.0,24.36667
Urlaţi,47.78333,26.85
Urlați,46.56559,28.05391
Urlaţi,44.98333,26.23333
Uriu,47.2,24.05
Urișor,47.16896,23.87777
Urisiu de Sus,46.70622,24.91109
Urisiu de Jos,46.71085,24.89609
Urieni,44.21722,24.14658
Uricea,46.77514,24.95554
Uricari,46.5734,27.36466
Uricani,47.15388,27.48767
Uricani,45.33731,23.1524
Uric,45.4639,23.08586
Uria,44.07454,24.59394
Urecheştii de Sus,46.13333,27.06667
Urecheşti,46.13333,27.08333
Urecheşti,45.6,27.06667
Urechești,45.25934,24.61576
Urechești,44.96079,23.27406
Urechești,44.41867,23.841
Urecheni,47.16667,26.51667
Urdinița,44.38903,23.42654
Urdeşti-Sat,46.35,27.93333
Urdești,46.34875,27.94266
Urdeș,46.37106,22.94298
Urdarii de Sus,44.81667,23.28333
Urdari,44.8,23.3
Urda de Sus,44.65796,23.64824
Urda de Jos,44.63159,23.62591
Urcu,44.8066,21.83555
Urca,46.54885,23.96187
Unțești,46.39724,27.7321
Unţeni,47.8,26.78333
Untarei,44.56667,24.21667
Unirea,47.1606,24.53078
Unirea,44.0,28.15
Unirea,46.40387,23.81314
Unirea,45.7402,27.10741
General Berthelot,45.61667,22.88333
Unirea,45.11667,27.81667
Unirea,44.26667,27.63333
Unirea,44.15,23.18333
Unip,45.6568,21.33699
Unimăt,47.50502,22.74535
Unguroaia,47.60707,26.70343
Unguriu,45.27933,26.63208
Unguriţi,44.66667,23.93333
Arini,46.35,27.18333
Ungureni-Jianu,47.88333,26.78333
Ungureni-Isăcescu,47.88333,26.81667
Ungurenii Mici,44.41558,23.91592
Ungureni-Horia,47.88333,26.78333
Ungureni-Crişan,47.88333,26.78333
Ungureni-Cloşca,47.88333,26.78333
Ungureni,46.51667,26.95
Ungureni,45.26667,26.0
Ungureni,47.54631,23.95241
Ungureni,46.52283,27.11186
Ungureni,46.20502,27.21461
Ungureni,45.91307,27.47
Ungureni,45.81347,26.67422
Ungureni,45.25556,24.77319
Ungureni,45.18524,24.69892
Ungureni,45.05,22.95
Ungureni,45.03489,26.38555
Ungureni,45.0,26.36667
Ungureni,44.98874,23.36485
Ungureni,44.93711,25.81089
Ungureni,44.9,23.23333
Ungureni,44.87147,25.3918
Ungureni,44.88251,24.52284
Ungureni,44.79723,26.28726
Ungureni,44.78477,25.90001
Ungureni,44.67656,25.90953
Ungureni,44.7,23.1
Ungureni,44.57804,25.50006
Ungureni,44.40229,23.94211
Ungurelu,44.96667,23.55
Ungurei,46.01659,23.82903
Ungurei,44.28333,24.75
Unguraș,47.62904,23.67893
Unguraş,47.11667,24.05
Ungra,45.98333,25.26667
Unghi,47.04498,26.56349
Unghiu,44.76667,23.63333
Ungheni,47.2,27.78333
Ungheni,47.26467,26.45944
Ungheni,46.48333,24.46667
Ungheni,44.53333,24.7
Ungheni,44.5,24.96667
Unciuc,45.54445,22.88239
Uncioaia,45.0,23.18333
Uncești,47.52813,26.32341
Uncești,46.86055,26.79804
Uncești,46.79884,27.60047
Umbrărești,45.84835,27.91845
Umbrăreşti,45.71667,27.46667
Ulmu,44.95,27.31667
Ulmu,44.26667,26.91667
Ulmoasa,47.73242,23.53324
Ulmi-Oineşti,44.48333,25.78333
Ulmi,44.95489,26.25541
Ulmi,47.28352,27.07127
Ulmi,44.9,25.5
Ulmi,44.48667,25.78028
Ulmi,44.36299,24.37793
Ulmet,45.3689,26.47277
Ulmetu,45.11667,24.23333
Ulmetu,45.09103,25.48121
Ulmetu,45.00346,23.96714
Ulmet,44.68151,23.65792
Ulmeni-Ungureni,44.15,26.73333
Ulmeni-Pământeni,44.15,26.7
Ulmenii,45.96667,24.26667
Ulmeni,47.46667,23.3
Ulmeni,45.06667,26.65
Ulmeni,44.63333,23.41667
Ulmeni,44.15,26.71667
Ulmeni,43.9024,25.10299
Ulma,47.88333,25.3
Ulm,45.78831,22.75278
Uliuc,45.67724,21.36075
Uliteasca,44.93333,24.85
Uliţa-Viilor,44.75,24.05
Uliţa Nucului,44.75,24.05
Ulița,45.10975,24.93978
Ulieș,46.21273,25.2454
Ulieşti-Vlaşca,44.58333,25.41667
Ulieşti-Dâmboviţa,44.58333,25.41667
Ulieşti,44.58333,25.41667
Ulieș,46.73348,24.33355
Ulieș,45.96355,22.62098
Ulicioiu,44.61667,23.93333
Uleşti,44.61667,26.7
Uleni,45.26518,24.78196
Ulea,46.42123,27.73505
Ulciug,47.43366,23.19077
Ulcani,46.36014,25.28046
Ulari,45.05,23.28333
Ulăreşti,44.95,23.98333
Ulăreasa,44.7,23.63333
Uivar,45.65806,20.90583
Uioara de Sus,46.38779,23.88582
Uioara de Jos,46.37087,23.83863
Uileacu Șimleului,47.27914,22.7536
Uileacu de Munte,47.11786,21.99763
Uileacu de Criș,47.08152,22.21415
Uilac,46.30996,24.87344
Uila,46.93143,24.61882
Uihei,45.91177,20.86213
Uidești,47.37851,26.4686
Uibărești,46.20614,22.76298
Uiasca,44.8835,24.82377
Ugruțiu,47.00626,23.37636
Ugra,46.51667,26.0
Uiești,44.35782,25.61423
Udupu,44.39657,25.14488
Udrești,45.11587,26.28574
Udrești,44.9266,24.46437
Udrești,44.88665,25.47524
Udeşti,47.56667,26.41667
Udeni-Zăvoi,44.82864,24.99861
Udeni,44.46385,25.42964
Udaţi-Mânzu,44.98333,26.95
Udați-Lucieni,44.97128,26.97171
Uda-Paciurea,43.87979,24.72379
Uda de Sus,44.93333,24.58333
Uda de Jos,44.9,24.56667
Uda-Clocociov,43.88791,24.71437
Uda,47.33645,26.57165
Uda,44.91667,24.56667
Ciorâca,44.83,24.55315
Ucuriș,46.63716,21.95763
Ucea de Sus,45.75,24.68333
Ucea de Jos,45.7841,24.67097
Tuzla,44.0,28.63333
Țuțuru,44.92008,23.77778
Tuțulești,45.39659,24.30225
Țuțulești,44.6965,24.97363
Tutova,46.11667,27.55
Ţuţora,47.13333,27.78333
Țuțcanii din Vale,46.78365,26.76869
Țuțcanii din Deal,46.79721,26.77487
Țuțcani,46.16362,27.951
Tutana,45.04286,24.65122
Tuta,46.25643,26.69103
Tuștea,45.60031,22.84699
Tușnadu Nou,46.19364,25.88757
Tuşnad,46.2,25.9
Tușinu,46.73331,24.22759
Tusa,47.04474,22.77686
Turzun,46.03333,25.21667
Turulung Vii,47.93236,23.1493
Turulung,47.93333,23.08333
Turturești,46.94077,26.45021
Turtureşti,45.11667,26.63333
Turț Băi,47.98189,23.22049
Turtaba,44.98138,22.69467
Turţ,47.98333,23.21667
Turnu Ruieni,45.3907,22.33557
Turnu Roşu,45.63333,24.3
Turnu Măgurele,43.75,24.86667
Turnu,45.38333,22.33333
Turnu,46.25764,21.12657
Turnişor,45.78333,24.11667
Turmaș,45.81978,23.13791
Turluianu,46.45298,26.64607
Ţurloeşti,45.48333,26.76667
Turia,46.03333,26.05
Turia,44.44671,24.47772
Tureşti,44.38333,25.16667
Tureni,46.62934,23.7024
Tureac,47.22967,24.80589
Turea,46.85111,23.3534
Turdeni,46.37963,25.10549
Turdaș,46.3062,23.91841
Turdaş,45.85,23.11667
Turda,46.56667,23.78333
Turda,44.97501,28.62402
Turculeşti,44.83333,25.05
Turcoaia,45.11667,28.18333
Turciţi,44.83333,23.46667
Turcineşti,45.1,23.33333
Turcheş,45.6,25.66667
Turcheni-Valea Rece,46.58333,26.05
Turceşti,46.4,23.41667
Turcești,45.04023,23.86574
Turcești,44.73607,24.75598
Turcenii de Jos,44.65,23.4
Turceni,44.68333,23.36667
Turbuța,47.24803,23.31281
Turburea de Sus,44.73333,23.51667
Turburea,45.3252,24.70036
Turburea,44.88212,23.86079
Turburea,44.71667,23.51667
Tur,47.88231,23.39045
Tupşani,44.93333,23.55
Tupilaţi,47.06667,26.63333
Tupilaţi,46.45,27.45
Tupilați,46.39107,27.98022
Tunşi,44.91667,23.45
Tunsești,46.48082,27.65952
Tungujei,46.92539,27.36595
Tunelu-Teliu,45.7,25.85
Tunel,47.36667,24.81667
Tunarii Vechi,43.90878,23.11695
Tunarii Noi,43.93021,23.13571
Tunari,44.71667,23.9
Tunari,44.65,22.76667
Tunari,45.12927,25.46789
Tunari,44.55,26.15
Tunari,44.13743,25.59014
Tuluceşti,45.56667,28.03333
Tulnici,45.91667,26.66667
Tulghieș,47.50091,23.37081
Tulgheş,46.95,25.76667
Tulești,46.60314,27.33238
Tulei-Câmpeni,45.13553,24.48603
Tulcea,45.16667,28.8
Tulca-Cătun,46.78333,21.76667
Tulca,46.78333,21.78333
Tulbureni,47.71667,26.7
Tulburea Văleni,45.19887,26.10901
Tulburea,45.56511,26.84397
Tulburea,45.33618,26.47584
Tulburea,45.15,26.11667
Ţuiculeşti,44.88333,24.06667
Ţuicani,44.96667,25.63333
Ţugueţii de Sus,44.26667,25.23333
Ţugueţii de Jos,44.21667,25.25
Ţuglui,44.18333,23.81667
Tufeștii de Sus,46.91398,27.62917
Tufeștii de Jos,46.8809,27.62119
Tufeşti,44.76667,24.88333
Tufeşti,45.05,27.81667
Tufenii,44.48333,25.75
Tufeni din Deal,44.38333,24.8
Tufeni,45.0579,25.83976
Tufeni,44.36667,24.78333
Tufele,45.1,26.46667
Tufele,45.86667,27.08333
Tufaru,44.74849,24.42647
Tufări,44.73333,22.41667
Tufanul,44.68333,26.06667
Tufanii,44.9798,24.47039
Tufani,44.7991,26.32564
Tufani,43.99333,28.00882
Țufalău,45.83497,26.02666
Tufa Costieni,44.31667,25.91667
Tudor Vladimirescu,45.18675,28.79954
Tudor Vladimirescu,47.98619,26.99783
Tudor Vladimirescu,47.68635,27.17211
Tudor Vladimirescu,47.13344,26.78556
Suceveni,46.01222,28.01806
Tudor Vladimirescu,45.56667,27.65
Tudor Vladimirescu,45.21667,27.8
Tudor Vladimirescu,44.55,28.56667
Tudor Vladimirescu,44.43593,27.46365
Tudor Vladimirescu,43.99943,27.70327
Tudor Vladimirescu,43.94761,24.90616
Tudor Vladimirescu,43.82456,24.49571
Tudorăneşti,46.13333,22.78333
Tudorăcheşti,45.1,26.5
Tudora,47.51667,26.63333
Tubinsca,47.88333,25.41667
Truşeşti,47.76667,27.01667
Trufinești,44.49054,24.6386
Trudin,45.11667,24.3
Trotușanu,45.98175,27.09496
Tronari,45.31667,26.21667
Tronari,45.21859,26.4379
Troița,46.48442,24.76977
Troaş,46.08333,22.3
Troianul,44.0,25.0
Troian,45.07857,24.34912
Trohan,46.73308,27.28718
Trocheşti,44.08333,23.45
Trocani,44.94412,23.37936
Troaca,44.36667,23.71667
Trivalea-Moşteni,44.26667,25.23333
Tritenii-Hotar,46.57397,23.98386
Tritenii de Sus,46.60544,23.99849
Tritenii de Jos,46.58333,24.0
Trișorești,46.41287,23.13306
Trip,47.9245,23.37648
Trâmpoiele,46.15,23.15
Trifeşti,47.45,27.51667
Trifeşti,46.91667,26.81667
Trifești,46.52634,22.93088
Trifeşti,46.46667,22.85
Trifești,46.32079,23.20123
Tria,47.23342,22.26581
Treznea,47.1,23.11667
Trestioara,45.36667,26.35
Trestioara,45.50188,26.61242
Trestioara,45.43497,26.56675
Trestioara,45.14247,25.94592
Trestioara,44.78015,23.18016
Trestienii de Sus,44.88258,26.22639
Trestienii de Jos,44.86542,26.23243
Trestieni,45.51555,27.02271
Trestieni,45.32617,26.57083
Trestieni,44.50449,25.75789
Trestiana,46.98333,27.78333
Trestia,45.0,23.88333
Trestia,47.56474,23.79368
Trestia,47.11433,23.33533
Trestia,46.0239,22.93355
Trestia,45.61087,26.85815
Trestia,45.3288,26.51691
Trestenicu Vechi,43.96667,25.61667
Trestenicu Nou,43.96667,25.61667
Trestenicu,43.96667,25.61667
Trestenic,45.07888,28.58989
Trepteni,44.86478,24.35273
Trenu,45.1855,26.2698
Treizeci Decembrie,46.33333,27.85
Trei Sate,46.47572,24.89855
Trei Movile,47.63333,26.25
Trei Hanuri,46.61667,23.7
Trei Fântâni,46.72277,25.85228
Trebeș,46.6,26.83333
Treaptu,45.13333,24.0
Trăsnitu,44.43333,25.13333
Trăpărăuţă,46.03333,23.1
Tranișu,46.85,22.83333
Traniș,47.33317,23.30649
Trăisteni,45.33857,25.72767
Trăinei,45.71667,24.05
Traian Vuia,45.8,22.06667
Traian,47.50236,27.41837
Traian,47.76835,22.69624
Traian,46.9914,26.90438
Traian,46.83335,26.57655
Traian,46.63333,27.03333
Traian,46.43333,21.85
Traian,45.42475,27.86823
Traian,45.18333,27.73333
Traian,45.02876,28.23518
Traian,44.7635,27.34337
Traian,44.5,25.98333
Traian,44.49117,28.67969
Traian,44.45961,22.85764
Traian,44.01667,24.45
Traian,43.76667,25.0
Tovărăşia,44.7,27.63333
Totoreni,46.61667,22.38333
Totoi,46.11491,23.65759
Ţoţoi,45.05,23.65
Totoești,47.25107,27.28879
Totia Mică,45.8,23.05
Totia,45.81195,23.05089
Totoiești,47.06667,26.6
Toțești,46.42527,22.9336
Toteşti,45.56667,22.88333
Totea de Vierşani,44.85,23.56667
Totea de Negreni,44.86667,23.6
Totea de Hurezani,44.82411,23.62343
Totea de Frumuşei,44.86667,23.6
Totea,44.85258,23.60998
Toşorog,46.83333,25.88333
Tosa,46.73333,27.18333
Tortoman,44.35,28.21667
Tortoeşti,44.93333,24.71667
Tortoeşti,44.71667,24.0
Toroveşti,44.8,24.9
Toropălești,45.49251,26.91851
Torocpatac,46.8,25.5
Tormac,45.52083,21.49361
Toria,46.1,25.86667
Torcești,45.69708,27.48599
Torba,46.54746,24.88758
Topraisar,44.01667,28.45
Toporu,44.01056,25.65278
Toporaşu,45.58333,26.73333
Toporăști,46.69299,27.4118
Topoloveni,44.81667,25.08333
Topolovățu Mic,45.75963,21.64197
Topolovăţu Mare,45.77389,21.61889
Topolog,44.88333,28.36667
Topolița,47.16787,26.38345
Topoliceni,47.11023,25.93509
Topoliceni,47.11667,25.9
Topolia,45.33333,21.11667
Toplița Mureșului,45.97434,22.92147
Topliţa-Ciuc,46.36667,25.8
Topliţa,46.25,22.8
Topliţa,47.85,25.85
Toplița,47.35811,23.47117
Topliţa,46.9243,25.3519
Topliţa,45.68333,22.78333
Topliţa,45.3,23.03333
Toplița,45.09022,24.73236
Topliceni,45.41667,27.0
Toplicehi,45.4,27.01667
Topleţ,44.79722,22.39444
Topla,45.89769,22.03938
Topla,45.05863,22.46111
Ţopârlani,44.83333,24.2
Topârcea,45.88564,23.95579
Topilele,45.38333,26.33333
Topile,47.2634,26.66883
Topești,46.87669,22.12737
Topești,45.90579,26.7526
Topești,45.08018,22.97068
Topana,44.81667,24.51667
Topa Mică,46.93627,23.38716
Topalu,44.55,28.05
Topa de Sus,46.86497,22.25104
Topa de Jos,46.84645,22.23382
Topa de Criș,47.00211,22.53342
Țopa,46.25445,24.88162
Țonțești,45.12622,25.83301
Tonoiu,46.9,23.7
Toneşti,44.78333,24.78333
Tonești,44.80315,24.41221
Tonea,45.85,23.5
Tonea,45.80571,23.53366
Tonea,44.20534,27.40728
Tonciu,46.99844,24.37858
Tonciu,46.78025,24.55201
Tomuțești,46.41323,22.92844
Tomuşeşti,46.28333,22.9
Tomulești,45.07111,24.49216
Tomulești,43.97695,25.63745
Tomşani,45.11667,24.05
Tomşani,44.95,26.28333
Tomșani,44.64178,25.50244
Tomșanca,44.62251,24.94017
Tomșa,46.56808,27.99554
Tomozia,46.43333,27.25
Tomușești,46.4524,23.01432
Tomnatic,47.01667,22.61667
Tomnatic,45.98857,20.66186
Tomnatecu de Sus,46.26667,22.8
Tomnatec,46.43484,23.0917
Tomnatec,46.28466,22.80448
Tomis Nord,44.2,28.61667
Tomişeşti,46.4,22.96667
Tomeşti,47.11667,27.68333
Tomești,46.55617,25.77922
Tomeşti,46.4,22.96667
Tomești,46.35561,27.58386
Tomești,46.29935,23.36423
Tomeşti,46.21667,22.65
Tomeşti,45.78333,22.3
Tomeni,44.2921,24.36417
Toma,44.81667,21.86667
Tolovanu,47.43333,25.31667
Țolici,47.1184,26.44841
Țolești,47.37833,26.48631
Toleșeni,46.92015,25.42665
Toldal,46.70509,24.58155
Tolăcești,46.35265,23.14491
Tojanii de Sus,45.76667,26.73333
Tojanii de Jos,45.78333,26.71667
Tojanii,45.75,26.75
Toiaga,44.69228,23.64598
Țohești,46.24905,22.61484
Tohat,47.49476,23.30669
Toharca,45.6,27.06667
Tohanu Vechi,45.56667,25.36667
Tohanu Nou,45.55208,25.38622
Tohani,45.06377,26.43793
Toflea,46.06372,27.33411
Tofălău,46.58703,24.65319
Todireştii Noi,47.31667,26.83333
Todireşti,47.7,26.03333
Todireşti,47.31667,26.83333
Todireşti,46.85,27.36667
Todireni,47.29902,25.34412
Todireni,47.61667,27.11667
Todireni,47.01413,27.13579
Todireni,46.51091,28.12777
Todirel,47.07081,27.60685
Toderița,45.78689,25.06474
Toculești,45.0304,25.39624
Tocileni,47.71104,26.78657
Tocileni,45.30211,26.52694
Tocila,45.4,26.7
Tocila,46.61667,26.75
Toci,46.29439,22.97945
Tochilea,46.39691,27.40286
Toceni,43.96464,23.947
Toc,46.01271,22.31905
Toboliu,47.04182,21.71946
Toarcla,45.89851,24.7417
Toancheş,45.51667,25.28333
Toager,45.41252,20.96511
Tiur,46.16009,23.88927
Tiulești,46.22345,22.67726
Țiu,44.44569,23.3826
Titu-Gară,44.66667,25.55
Tuțu,46.18333,27.26667
Titu,44.65,25.53333
Pitoi,44.88333,25.08333
Ţâţârligu,45.31667,26.6
Titerlești,45.02235,22.80412
Țițirigi,44.63937,23.0487
Titireci,45.10797,24.19743
Titila,45.72478,26.83754
Titiana,46.73169,24.1865
Titești,45.41971,24.39323
Titeşti,45.01667,25.0
Titcov,44.99703,28.1255
Tisoviţa,44.51667,22.2
Tismana,45.05,22.96667
Tismana,44.52369,22.66502
Tișița,45.84566,27.21229
Tişiţa,45.78333,27.2
Tisieu,46.76559,25.01258
Tiseşti,46.26667,26.61667
Tisculeşti,45.06667,24.3
Tișăuți,47.62471,26.31162
Tisău de Sus,45.18333,26.53333
Tisău,45.16667,26.51667
Tisa-Silvestri,46.65346,27.14067
Tisa Nouă,46.08228,21.37115
Tisa,45.20492,24.21814
Ștubeie Tisa,45.06713,25.51913
Tisa,45.0,25.61667
Tisa,47.94844,23.95768
Tisa,46.43451,26.72112
Tisa,46.25855,22.54861
Tisa,45.95115,22.47269
Tisa,45.13427,26.32821
Târzii,46.56863,27.86277
Târzia,47.31332,26.35964
Târşoreni,45.21667,25.9
Târşolţel,47.95,23.35
Târşolţ,47.95,23.35
Târşeşti,44.95,24.71667
Târsa-Plai,46.3927,22.77945
Târsa,46.18333,22.5
Târsa,46.38233,22.79808
Târsa,45.61667,23.15
Târsa,44.56966,23.29978
Târpeşti,47.15,26.41667
Tiroş,46.83333,25.88333
Tirol,45.33256,21.59682
Târnoviţa,46.36667,25.35
Târnaviţa,46.25,22.65
Târnoveni,45.51667,21.91667
Târnova,46.31667,21.8
Târnova,45.3425,22.00611
Târnicioara,47.4,25.76667
Târnăviţa,45.95,22.78333
Târnăvioara,46.11667,24.25
Târnăveni,46.33191,24.29662
Târnava de Jos,44.15,25.56667
Târnava de Criş,46.18333,22.61667
Târnava,46.13975,24.28926
Târnava,45.96746,22.78002
Târnava,44.17705,23.54902
Târnava,44.1444,25.56347
Târlişua,47.38333,24.18333
Târlești,45.25,26.21667
Ţârleşti,44.7,24.88333
Târlele Filiu,45.04624,27.49953
Târlele,45.17974,27.02029
Târlele,44.73333,27.28333
Târâtu,45.70449,26.89227
Tirișneag,44.20392,24.78828
Țirioi,44.78113,23.04741
Tirimioara,46.45463,24.54789
Tirimia,46.44927,24.49162
Tirici,45.46226,23.46635
Târgu Trotuş,46.26667,26.66667
Târguşor-Gară,44.46667,28.41667
Târguşor,46.25,27.08333
Târguşor,46.2,27.1
Târgușor,47.38333,22.16667
Târgușor,47.0,24.05
Târguşor,44.45,28.41667
Târgu Secuiesc,46.0,26.13333
Târgu Pănceşti,46.21667,27.1
Târgu Ocna,46.27899,26.61301
Târgu Neamţ,47.2,26.36667
Târgu-Mureş,46.54245,24.55747
Târgu Logreşti,44.86667,23.71667
Târgu Lăpuş,47.45261,23.86539
Târgu Jiu,45.05,23.28333
Târgu Gânguleşti,44.96667,23.86667
Târgu Frumos,47.2,27.0
Târgu Dealului,44.85,24.95
Târgu Cucului,45.53333,27.1
Târgu Cărbuneşti,44.95,23.51667
Târgşoru Vechi,44.86667,25.91667
Târgşoru Nou,44.91667,25.88333
Târgşoreni,45.21667,25.9
Târgoviște,45.81554,21.82548
Târgovişte,44.92543,25.4567
Tireu,46.76754,24.99472
Tiream,47.61667,22.46667
Tireac,47.69377,23.03639
Ţârdenii Mici,46.71667,26.58333
Ţârdenii Mari,46.68333,26.58333
Țârculești,44.93333,23.33333
Ţârcov Izvor,45.3,26.58333
Ţârcov,45.35,26.58333
Trâncești,46.47586,22.8593
Ţircăneşti,44.65,24.0
Târbeşti,44.36667,24.0
Țiptelnic,46.58462,24.41423
Țipilești,47.29996,27.4814
Țipău,45.7551,26.72582
Ţipari,45.76667,21.85
Țipărești,45.08533,25.95612
Țipar,46.47563,21.63431
Tioltiur,47.01345,23.72026
Tiocu de Sus,47.07618,23.6485
Tiocu de Jos,47.05907,23.66093
Tânţuleşti,45.11667,24.3
Ţinteşti,45.06667,26.86667
Țintea,45.03403,25.9046
Tântava-Banului,44.41667,25.83333
Tântava Bălăşoaia,44.41667,25.83333
Tântava,44.41511,25.8245
Ţânţaru,44.53333,23.33333
Ţânţăreni,44.96667,26.03333
Ţânţăreni,44.6,23.48333
Tinosu,44.81667,26.01667
Tinoasa,46.0,26.18333
Tinoasa,45.61396,26.87803
Tânganu Nou,44.38333,26.31667
Tânganu Moară,44.38333,26.31667
Tânganu,44.40628,26.31262
Tincova,45.57148,22.15011
Tincani,46.63333,25.68333
Tâncăbeşti,44.68333,26.08333
Tinca,45.85,23.5
Tinca,46.77529,21.933
Tinăud,47.05285,22.43365
Tina,44.86059,23.82413
Timuș,48.03156,26.99494
Tâmpenii de Sus,44.38333,24.63333
Tâmpenii de Jos,44.36667,24.63333
Tâmpa,46.53192,24.76978
Tâmpa,45.82586,23.01481
Timoni,46.61667,25.71667
Tâmna,44.56667,23.01667
Timişu de Sus,45.52836,25.57755
Timișu de Jos,45.58078,25.62278
Timişoara,45.75372,21.22571
Timişeşti,47.23333,26.55
Tâmbureşti,44.0264,23.93646
Tâmboeşti,45.51667,27.05
Ţimban,45.85,24.16667
Timăreşti,46.58333,26.56667
Tâlveşti,44.95,23.23333
Tălmaci,46.6,21.88333
Tilişca,45.8,23.85
Tilecuș,47.02244,22.21834
Tileagd,47.06667,22.2
Tilalmoş,46.85,25.5
Tihău,47.22724,23.32964
Tiha Bârgăului,47.23333,24.76667
Tigveni,45.13333,24.58333
Tigoiu,45.46667,27.0
Țigmandru,46.35516,24.71788
Ţigluia,47.33333,26.58333
Ţiglina,45.41667,28.03333
Ţâgâra,46.66667,27.2
Tighina,44.57376,24.29776
Țigău,47.07046,24.33354
Ţigăreni,44.71667,22.73333
Ţigănia,45.91667,24.46667
Ţigănia,45.26667,24.31667
Ţigănia,45.16667,24.13333
Ţigănia,44.91667,25.85
Ţigănia,44.7,24.18333
Ţigănia,44.36667,27.83333
Ţigăneştii-Linie,44.8,25.08333
Țigăneștii de Criș,47.12732,22.28188
Țigăneștii de Beiuș,46.62929,22.41534
Ţigăneşti,46.61667,22.41667
Țigănești,46.39722,27.25987
Țigănești,45.90157,27.43521
Țigănești,44.83615,25.08328
Ţigăneşti,44.73333,26.11667
Ţigăneşti,43.9,25.36667
Ţigănea,47.4,26.46667
Ţiganca,44.96667,24.73333
Ţigănaşi Târg,47.33333,27.46667
Ţigănaşi,47.33333,27.46667
Țigănași,44.433,22.50352
Țifu,46.33457,27.89085
Țifra,46.25824,23.69457
Ţifeşti,46.43333,27.55
Ţifeşti,45.85,27.1
Tigveni,44.73608,25.15256
Ticvaniu Mic,45.11805,21.64536
Ticvaniu Mare,45.13528,21.63806
Ticuşu Vechi,45.93333,25.1
Ticușu Nou,45.91879,25.18124
Ticu-Colonie,46.917,23.23494
Ticu,46.90709,23.24493
Ticoș-Floarea,46.88106,25.99336
Ticoş,46.43333,25.18333
Ticoș,46.87186,25.96604
Ţicleni,44.88333,23.4
Tichiriș,45.90076,26.87849
Țichindeal,45.86913,24.39077
Tichilești,45.2635,28.35937
Tichileşti,45.11667,27.9
Tichilești,44.60207,28.09154
Ticera,46.26667,22.73333
Țicău,47.44566,23.30723
Țibucanii de Jos,47.11799,26.58351
Ţibucani,47.1,26.53333
Tibru,46.19666,23.56406
Țibrinu,44.33179,28.15934
Tibod,46.34779,25.31297
Țibeni,47.81618,26.02438
Țibău,47.59651,25.07509
Țibăneștii Buhlii,46.86254,27.24312
Ţibăneşti,46.91667,27.33333
Ţibăneşti,44.98333,27.8
Ţibana,46.98333,27.33333
Ţiba,46.35,25.8
Tia Mare,43.86667,24.63333
Thileţ,45.03333,22.41667
Teuş,45.41667,22.21667
Tetoiu,44.75,23.91667
Tetișu,46.89754,23.04514
Tetila,45.12332,23.38615
Tețcoiu,44.68188,25.43846
Țețchea,47.04594,22.32485
Tețcani,47.03463,26.84214
Teștioara,47.25388,23.42566
Teșna,47.36692,25.12934
Teșna,47.33198,25.12939
Ţesna,45.03333,22.41667
Teslui,44.51667,24.36667
Teșila,45.30352,25.72324
Tescani,46.5116,26.65608
Teș,45.84748,21.65754
Terpeziţa,44.29191,23.50559
Țerova,45.3085,21.92416
Termezeu,47.06667,22.35
Tereujani,44.88333,23.75
Tereni,46.58333,26.06667
Teremia Mică,45.95773,20.49839
Teremia Mare,45.93528,20.525
Teregova,45.15,22.28333
Terebeşti,47.68333,22.71667
Terchești,45.58433,27.05205
Terca,45.52495,26.53781
Țepu de Sus,45.98555,27.3741
Ţepu,45.96667,27.36667
Țepoaia,46.31209,27.36241
Țepeș Vodă,45.17139,27.62202
Ţepeş Vodă,44.61667,25.76667
Tepeș Vodă,44.44619,28.23917
Țepești,44.79271,23.92297
Tepșenari,45.02482,24.48476
Ţepeşani,46.85,25.91667
Țepa,45.77986,26.68895
Teodoreşti,44.96667,24.33333
Teodorești,44.92404,24.48434
Teodoreni,44.45,22.8
Țentea,47.00072,24.1389
Țengheler,46.86911,25.55356
Tencănău,44.22785,23.48641
Timișeni,44.88333,23.11667
Temeșești,46.0511,22.27318
Temerești,45.87331,22.21595
Temelia,46.28989,26.87514
Țelna,46.15902,23.50099
Teliucu Superior,45.70776,22.87584
Teliucu Mic,45.75,22.9
Teliucu Inferior,45.71667,22.88333
Teliu,45.69856,25.8559
Telița,45.15297,28.56794
Țeline,46.07539,24.90465
Teleştii-Moşteni,45.01667,23.08333
Teleşti,45.0,23.08333
Telești,44.89252,25.22868
Teleşti,44.68333,24.86667
Teleşmani,44.8,24.55
Teleormanu,43.96271,25.45876
Telejna de Sus,46.78333,27.63333
Telejna de Jos,46.78333,27.65
Telejna,46.78295,27.64834
Telega,45.13333,25.78333
Telechiu,47.05538,22.27466
Telechia,45.85964,26.04579
Telechești,45.08661,24.0165
Telec,46.87979,25.87775
Teleasca,44.68333,24.88333
Teleac,46.67367,24.79692
Teleac,46.65,22.43333
Teleac,46.2455,25.32177
Teleac,46.08704,23.62842
Telciu,47.43333,24.4
Telcișor,47.46,24.45158
Țela,45.98723,22.06855
Tejgheaua,44.31667,26.56667
Teiu-Vărăşti,46.5,22.95
Teiușu,45.09273,24.23958
Teiuşu,44.81667,24.75
Teiușu,44.34327,24.43695
Teiș,44.35,24.13333
Teiușu,44.16743,26.27973
Teiuș,46.3225,26.97027
Teiuş,46.2,23.68333
Teiuș,44.63559,24.52502
Teiul,44.75997,24.12362
Teiu din Vale,44.65,25.13333
Teiu,46.50834,22.983
Teiu,45.89534,22.50192
Teiu,44.90387,24.28315
Teiu,44.66667,25.1
Teiu,44.25331,23.29473
Teişu,44.93333,25.43333
Teișu,45.31573,26.48872
Teișoru,46.60578,27.58553
Teișori,44.29397,25.81722
Teişoara,47.83333,26.61667
Teiş Nou,44.96667,25.4
Teişani,45.23333,25.98333
Teişani,44.36667,23.88333
Teiş,45.6,27.06667
Teiș,44.96285,25.4028
Teioasa,48.21667,26.58333
Teii,46.0,26.8
Teicioara,47.85,25.85
Țeica,45.08914,24.28467
Tehomir,44.80593,23.07896
Țegheș,44.38196,25.87366
Țeghea,47.58661,22.73578
Tega,45.48333,26.41667
Tega,45.27615,26.37703
Tecuciu Nou,45.86667,27.41667
Tecuci,45.84973,27.43441
Tecuci,44.34179,24.85966
Tecucelu Sec,45.98153,27.32941
Tecșești,46.27455,23.47892
Techirghiol,44.05,28.6
Techereu,46.09247,23.07184
Teceu Mic,48.00305,23.5808
Țebea,46.16053,22.72127
Teascu din Deal,44.52442,23.38976
Teasc,44.16454,23.86461
Teasc,47.71667,26.68333
Teaca,46.91667,24.51667
Tazlău de Jos,46.55,26.46667
Tazlău,46.71667,26.46667
Tăvârlău,44.45,25.33333
Tăvădărești,46.3268,27.29317
Tăuții-Măgherăuș,47.65,23.48333
Tăuții de Sus,47.65665,23.65841
Tăuți,46.71187,23.50773
Tăuți,46.09606,23.46783
Tăuteu,47.26667,22.33333
Tăutești,47.91849,26.73445
Tăutești,47.8436,26.23789
Tăutești,47.23346,27.46451
Tăutelec,47.15516,22.03217
Tăut,46.7199,21.83845
Tauţ,46.28333,21.91667
Tăușeni,46.87324,23.92627
Tăuşeanca,44.15,26.71667
Tăureni,46.57952,24.08077
Tăureni,46.26667,25.25
Tăure,47.20643,24.32157
Tăuni,46.15068,24.13164
Taula,46.45673,27.2819
Țăudu,46.98314,23.05282
Tău Cătun,46.9,24.33333
Tauca,45.86667,26.65
Tău Bistra,45.68347,23.58483
Tău,45.78333,23.68333
Tău,46.59386,24.15654
Tău,46.41667,24.45
Tău,46.07067,23.84219
Tătulești,44.90596,27.12315
Tătuleşti,44.63333,24.63333
Ţaţu,45.03333,22.41667
Tatomireştii de Sus,44.51667,23.6
Tatomirești,46.90129,27.53434
Tatomireşti,46.9,26.7
Tatomirești,44.51662,23.59661
Tatomir,45.35,29.06667
Ţătoaie,47.38333,26.71667
Tătârlaua,46.20276,24.16668
Tătăruşi,47.35,26.6
Tătăruş,45.5,27.48333
Tătaru,47.3361,25.09639
Tătaru,45.50133,27.47247
Tătaru,45.1,26.33333
Tătaru,44.84482,27.43376
Tătaru,43.88056,28.36059
Tătărești,47.68253,23.00772
Tătărăști,45.95081,22.51158
Tătarca,47.58333,25.13333
Tătarca,47.53333,25.41667
Tătarca,45.59875,28.05177
Tătărăștii de Sus,44.40768,25.12192
Tătărăștii de Jos,44.37501,25.17721
Tătărăștii de Criș,46.16427,22.61656
Tătărăști,46.21667,27.2
Tătărășeni,48.06401,26.68414
Tătăranu,45.51667,27.31667
Tătărăni,46.80466,27.67581
Tătărăni,46.69422,27.96443
Tătărani,45.0,25.26667
Tătărani,44.98528,24.24189
Tătărani,44.89763,26.03509
Tătărăi,44.73746,25.92985
Tătărăi,44.6,24.55
Tatanir,45.35177,29.03578
Tăşnadu Nou,47.51667,22.56667
Tăşnad,47.48333,22.58333
Taşca,46.9,26.01667
Tășad,46.93773,22.12516
Ţăruleşti,45.11667,26.06667
Tărtăşeşti,44.57722,25.81278
Tărtăria,45.93356,23.41304
Ţărţăl,44.2,24.11667
Tărpiu,47.19261,24.40542
Tărpiu,47.14353,23.76149
Satu Nou,46.50072,27.25394
Tarniţa de Jos,46.48333,27.25
Tarniţa,45.13333,24.68333
Tarnița,46.97714,27.18232
Tarnița,46.52141,27.25303
Tarnița,46.17808,23.05471
Tarniţa,44.98333,22.83333
Țarna Mare,47.47271,26.32763
Țărmure,47.35353,22.75743
Țărmure,46.24617,22.55914
Tărlungeni,45.63333,25.75
Tariverde,44.56268,28.60245
Tărâţa,46.56667,26.6
Ţarina,47.41667,26.88333
Țarina,46.3133,23.12557
Tăriceni,44.79624,25.96958
Tăriceni,44.29982,26.82965
Tărian,47.07281,21.77911
Tărhăuși,46.59101,26.08804
Tărcuţa,46.58333,26.06667
Tărcești,46.37637,25.13296
Tarcea,47.45,22.18333
Tarcău,46.86667,26.13333
Tărcăița,46.58866,22.33503
Tărcaia,46.63333,22.36667
Tărăţeni,47.2,26.0
Țărățel,46.12261,22.81995
Țărănești,46.40256,23.12022
Țapu,46.07122,24.08926
Tăplău,46.03315,27.48778
Tapia,45.68135,21.97223
Tansa,47.30139,27.07653
Tansa,46.91667,27.23333
Tanislavi,44.77261,23.96727
Tangâru,44.15,25.88333
Ţăndărei-Gară,44.65,27.65
Ţăndărei,44.65,27.66667
Țandăra,44.48907,23.73795
Tănăsoaia,45.48333,26.4
Tănăsoaia,46.1,27.36667
Tănăsoaia,45.63333,26.73333
Tănăşeşti,45.16667,24.5
Tănăsești,45.18283,23.96963
Tanacu,46.68333,27.81667
Tamboreşti,46.44507,22.95645
Tămăţei,46.38333,22.8
Tămașu,46.34831,25.28927
Tămășoaia,46.13109,27.00117
Tamaşii-Orăscu,44.58333,26.0
Tamaşi,46.48333,26.98333
Tamași,44.58438,26.00724
Tamașfalău,45.88438,26.11587
Tămășeu,47.22116,21.9276
Tămăşeşti,45.01667,24.9
Tămășești,47.50343,23.18904
Tămășești,46.01667,22.48333
Tămășești,44.99512,23.1875
Tămăşeşti,44.26667,25.55
Tămășeni,48.01537,23.13543
Tămăşeni,46.98333,26.93333
Tămăşeni,46.35,27.88333
Tămăşeni,45.71667,27.45
Tămașda,46.64453,21.55685
Tămășasa,45.79814,23.15657
Tămasa,46.94839,23.18734
Tămăoani,45.6795,28.07486
Tămaia,47.59339,23.36631
Tămădău Mic,44.45798,26.57065
Tămădău Mare,44.46667,26.55
Tămădău de Jos,44.46667,26.56667
Talpoș,46.69124,21.80335
Tălpigi,46.00796,27.47247
Tălpigeni,46.83325,27.89006
Brătășani,44.23333,25.25
Talpe,46.65,22.41667
Talpa-Trivalea,44.28333,25.28333
Tălpaș,44.68227,23.74553
Tălpășești,45.02511,23.16108
Talpa Poștei,44.31667,25.28333
Talpa-Ogrăzile,44.28726,25.29328
Talpani,45.95,26.98333
Talpa-Lefeşti,44.28333,25.28333
Tălpălăi,46.92343,27.16227
Talpa-Ioneşti,44.3,25.28333
Talpa-Bâscoveni,44.27067,25.32352
Talpa,47.90194,26.2363
Talpa,47.71667,26.85
Talpa,47.03499,26.64653
Talpa,46.51667,26.85
Tălmaciu,45.66714,24.26464
Tălmăcel,45.64712,24.2427
Tălișoara,46.10516,25.58875
Talea,45.21667,25.55
Tălăpanu,44.57839,23.23595
Tălagiu,46.2774,22.47352
Talaba,44.11667,26.46667
Taia,45.46667,23.41667
Țagu,46.82023,24.23459
Țăgșoru,46.79483,24.23518
Ţăgşor-Gară,46.75,24.16667
Tăgădău,46.51667,22.0
Ţaga,46.95,24.05
Tăetura-Barboşi,46.51667,27.93333
Tăetura,47.08333,26.6
Tăetura,46.55,27.91667
Tăietura,46.29805,25.20013
Tăcuta,46.91667,27.68333
Țăcău,44.92825,27.94717
Tabonu,43.90002,24.33108
Tăblășeni,46.51763,24.30667
Tăbărăştii Noi,45.08333,26.91667
Tăbărăști,45.07948,26.91943
Tabăra,47.57395,27.41213
Tabăra,46.82048,27.03925
Tăbălăești,46.76317,27.9819
Tabaci,45.07607,24.07225
Tabaci,44.46394,23.90998
Tăbucești,46.17084,27.44152
Tăbăcari,45.44363,27.002
Sviniţa,44.49972,22.10611
Șuvița,45.0834,25.50778
Suveica,46.43352,24.71654
Șutu,46.6164,23.54448
Sutoru,46.98714,23.25002
Sutești,44.66851,24.21476
Şuţeşti,45.21667,27.43333
Suteşti,44.65,24.21667
Șuța Seacă,44.82967,25.40944
Șuta,45.21795,24.26663
Susuri,45.15,24.15
Șușturogi,47.14125,22.11206
Suștra,45.78803,21.58369
Șuștiu,46.50035,22.45786
Suslănești,45.23945,25.12044
Șușița,44.72749,22.60284
Șușița,44.6245,23.35627
Suseni Socetu,44.75618,25.79829
Susenii Bârgăului,47.22311,24.7073
Suseni,46.98333,26.4
Suseni,46.63333,23.13333
Suseni,44.76667,25.78333
Suseni,46.81381,24.73194
Suseni,46.66667,25.55
Suseni,46.35426,27.66343
Suseni,46.15,26.73333
Suseni,46.09447,23.25331
Suseni,45.95,23.25
Suseni,45.48879,22.86844
Suseni,45.16872,24.13832
Suseni,45.14088,23.20801
Suseni,44.90092,25.14423
Suseni,44.71667,24.95
Suseni,44.45139,25.69562
Șușca,44.78448,21.53133
Şuşanii de Sus,44.6,24.08333
Susani,47.03333,26.41667
Susani,46.45,22.18333
Susani,45.80318,21.99693
Şuşani,44.58333,24.1
Susag,46.61102,21.91606
Surpini,45.18333,24.5
Surpeni,44.66934,24.53176
Surpați,45.20315,24.48334
Surpatele,45.04548,24.17886
Surlicari,45.06667,24.13333
Surlari,44.5707,26.31834
Șurina,46.67353,26.79179
Sureşti,44.78333,24.26667
Surdulești,44.39217,24.95798
Surducu Mic,45.76667,22.1
Surducu Mare,45.26661,21.58782
Surducel,46.92754,22.33369
Surduc,47.25,23.35
Surduc,46.97611,22.2016
Surduc,46.54045,23.55098
Surduc,45.38333,23.36667
Surdu,46.88333,22.66667
Surdoiu,45.35158,24.41367
Surdila-Greci,45.06667,27.26667
Surdila-Găiseanca,45.06667,27.33333
Surdești,45.18931,25.62512
Surdeşti,44.83333,24.83333
Șurdești,47.60215,23.76899
Surdești,46.32301,23.00292
Surdeni,45.06667,24.96667
Dumitrești,46.51667,24.78333
Surcea,45.88159,26.08273
Surani,45.2,26.16667
Şura Mică,45.83333,24.06667
Şura Mare,45.85,24.16667
Suraia,45.68333,27.4
Supuru de Sus,47.43349,22.76585
Supuru de Jos,47.46667,22.8
Suplai,47.43671,24.26002
Suplacu de Tinca,46.70638,22.11338
Suplacu de Barcău,47.25729,22.53195
Suplac,46.38333,24.51667
Șupitca,47.60941,26.78359
Şupan,46.42159,26.42057
Şuncuiuş,46.93333,22.53333
Șuncuiș,46.67442,22.26611
Sunători,47.35,25.36667
Sunători,47.39392,25.49589
Sumurducu,46.87071,23.44924
Şumuleu,46.38333,25.83333
Șumugiu,46.89019,21.97303
Şumud,46.4,23.93333
Șumița,44.96133,22.18714
Şumiţa,44.65,21.75
Șumandra,44.46396,23.28956
Șumal,47.28066,22.56591
Sultanu,45.10992,25.58771
Sultana,44.26062,26.85424
Sulţa,46.45,25.85
Sulța,46.46862,26.23896
Suliţoaia,47.65,26.93333
Sulița,47.65,26.91667
Sulina,45.1559,29.65356
Sulighete,45.9771,22.80204
Şuletea,46.28333,27.9
Suiug,47.32018,22.43219
Şuici,45.25,24.53333
Şuica de Sus,44.63333,24.56667
Șuica,44.6187,24.56936
Suhurlui,45.72873,27.82678
Suhuleț,46.90368,27.25849
Suhorca,47.65,24.66667
Suharu,44.72716,22.85859
Suharu,44.26802,23.38825
Suharău,48.13333,26.41667
Suhaia,43.73333,25.25
Suha,47.41667,26.05
Şugău,47.92529,23.88694
Sugău,46.81667,25.9
Şugag-Tău,45.76667,23.63333
Jidoștina,45.71812,23.58515
Şugag,45.76667,23.63333
Sueşti,44.86667,24.06667
Sudurău,47.53261,22.45752
Suduleni,45.05078,25.28213
Sudrigiu,46.59292,22.43379
Sudriaș,45.79005,22.02969
Sudiţi,45.38333,26.88333
Sudiţi,45.05,26.3
Sudiți,45.2689,26.87183
Sudiți,45.02298,26.81009
Sudiţi,44.73333,26.3
Sudiţi,44.58333,27.6
Sucutard,46.89742,24.06822
Suciu de Sus,47.43333,24.03333
Suciu de Jos,47.44584,23.9825
Șuchea,45.40947,26.58712
Suceviţa,47.78333,25.71667
Suceveni,46.53688,27.64854
Sucești,46.43716,22.79588
Suceava,47.63333,26.25
Suceagu,46.78432,23.46511
Sub Săloaia,46.43333,26.4
Sub Pogara,45.06667,22.45
Sub Plai,45.06988,22.46282
Sub Piatră,46.38441,23.44571
Subpiatră,47.02538,22.30727
Sub Piatră,46.36667,23.2
Subpădure,46.85,24.08333
Subpădure,46.35,25.8
Sub Pădure,46.37014,24.32634
Sub Obrej Tei,45.61667,25.7
Sub Margine,45.22163,22.34877
Sub Dos,45.06576,24.10126
Sub Dos,45.06667,24.03333
Subdeal,45.01667,26.38333
Sub Deal,45.06323,24.00839
Sub Crâng,45.10101,22.47203
Subcoasta Mihalţului,46.15,23.73333
Sub Coastă,46.58333,24.0
Subcetate,46.16188,21.33356
Sub Cetate,47.1,22.7
Subcetate,46.85,25.45
Sub Cetate,46.44485,25.38935
Subcetate,45.60264,22.99851
Suatu,46.76667,23.96667
Suarăș,47.13606,23.71141
Sturzeni,45.03333,25.25
Sturu,46.46839,22.79505
Stupinii Prejmerului,45.71763,25.81914
Stupini,45.7,25.56667
Stupini,47.07346,23.38206
Stupini,46.87554,24.3798
Stupini,45.71667,25.68333
Stupina,45.46088,27.44072
Stupina,45.21667,24.28333
Stupina,44.56427,28.18171
Stupina,44.55521,24.14719
Stupeni,46.38333,27.4
Stupărei,45.01736,24.28004
Stulpicani,47.46667,25.76667
Stuhuleț,46.41516,28.0679
Stufu,46.46667,22.76667
Stufu,46.44017,26.76865
Studinița,43.97691,24.42668
Studineţul,46.48333,27.51667
Studina,44.84259,22.78224
Studina,43.96667,24.41667
Studena,45.06461,22.46169
Strungari,45.85756,23.50353
Strunga,47.16667,26.98333
Strunga,44.12366,27.64111
Strugureni,46.98138,24.20604
Strugurelu,44.3415,24.68771
Strugasca,45.09608,22.44775
Strugarii de Sus,46.53333,26.7
Strugari,46.53333,26.71667
Strucut,46.67712,23.88473
Stroeşti,46.48333,26.66667
Stroeşti,45.81667,26.76667
Stroiești,47.61042,26.96562
Stroiești,47.61667,26.13333
Stroești,47.32609,26.88704
Stroiești,46.72531,27.9774
Stroești,45.30879,26.32707
Stroești,45.12953,24.79418
Stroeşti,45.08333,23.9
Stroiești,45.06302,23.15235
Stroești,44.82837,22.89949
Stroeşti,44.68333,26.41667
Stroe Beloescu,46.2,27.65
Strâmtura Mitoc,46.38333,27.76667
Strâmtura,46.38333,27.76667
Strâmtura,47.78333,24.13333
Strâmtura,47.58082,25.68144
Strâmtura,46.93333,26.23333
Strâmtu,44.77632,23.11324
Strâmbulici,47.38333,24.18333
Strâmbu-Băiuţ,47.6,23.98333
Strâmbu,45.08333,25.41667
Strâmbu,47.33783,23.95439
Strâmbeni,44.69896,24.94204
Strâmbeni,44.46897,24.97315
Strâmba-Vulcan,44.91667,23.05
Strâmba-Jiu,44.75,23.33333
Strâmba,45.4,26.41667
Strâmba,45.23333,26.26667
Strâmba,47.22814,24.65021
Strâmba,45.7,25.23333
Strâmba,44.2,24.08333
Stretea,45.93325,22.58251
Streneac,44.68101,21.76728
Stremț,47.49184,23.0771
Stremţ,46.21667,23.63333
Streminoasa,44.68483,24.1788
Strejnicu,44.91676,25.95109
Strejeștii de Sus,44.54389,24.22772
Strejeşti,44.53333,24.26667
Strejeroaia,47.53333,26.08333
Strei,45.71554,22.99443
Streisângeorgiu,45.72746,23.02283
Strei-Săcel,45.74551,23.02576
Strehaia,44.61667,23.2
Stregasca,45.06667,22.41667
Stravolea,45.06667,27.31667
Străuţi,46.26667,22.78333
Stratonești,44.82049,25.20074
Străteni,47.93677,26.29664
Străoști,45.04058,26.22607
Străoști,44.7312,25.35081
Străoane de Sus,45.95,27.03333
Străoane,45.93333,27.05
Străminoasa,46.64619,27.29576
Străjescu,45.81777,27.28779
Strezeni,45.15,26.48333
Straja,47.91667,25.55
Straja,46.90276,26.17074
Straja,46.80733,23.29523
Straja,46.7005,23.87008
Straja,46.43989,26.36258
Straja,46.06723,23.6863
Straja,44.10182,28.46723
Strahotin,47.85152,26.94582
Stracoș,46.91089,22.14493
Străchineşti,45.31667,26.25
Străchinești,44.90499,23.83767
Strachina,47.95,26.33333
Strachina,44.63333,27.63333
Storobăneasa,43.88333,25.45
Stornești,47.11667,27.18333
Storeşti,47.55,26.86667
Stolojani-Jiu,44.66667,23.38333
Stolojani,45.037,23.14714
Stolnici,44.56667,24.78333
Stolniceni-Prăjescu,47.19858,26.7481
Stolniceni,47.56844,27.25065
Stolniceni,45.03948,24.3064
Stolna,46.71172,23.40064
Stoișești,46.34224,27.85405
Stoiniţa,44.68333,23.61667
Stoineşti,46.61667,22.01667
Stoina,44.68333,23.63333
Stoileşti,44.9,24.38333
Stoiculești,44.58873,24.11691
Stoicești,44.62658,23.87724
Stoiceni,47.51121,23.8808
Stoicani,45.70445,28.07843
Stoicănești,44.88127,24.29096
Stoicăneşti,44.18333,24.63333
Stoicana,45.15,24.06667
Stoiana,47.01824,23.68886
Stoenoaia,44.58333,26.31667
Stoeneşti,45.25,25.16667
Stoenești,45.25132,24.42865
Stoeneşti,45.11667,24.16667
Stoenești,44.92422,25.85881
Stoienești,44.79793,28.03874
Stoenești,44.48569,25.71196
Stoenești,44.26861,27.36207
Stoeneşti,44.14444,25.895
Stoeneşti,44.11667,24.5
Stoieneasa,45.99986,22.84306
Stodu,45.91667,24.16667
Stoboru,46.9372,23.28904
Stoborăști,44.3413,24.78571
Știuleți,46.45433,22.91701
Ştiucani,44.75,22.85
Ştiuca,45.57139,21.97667
Ştiubieni,47.96667,26.78333
Ștubeiu,45.22086,26.01768
Știubei,45.37775,27.14302
Ştiubei,45.06667,27.06667
Știubei,44.32455,23.35862
Ştiubee-Tisa,45.06667,25.53333
Ștircovița,44.35557,23.00651
Stârciu,47.08747,22.91998
Stârcu,46.64885,23.89183
Stârciu,44.68333,24.85
Stârcii de Sus,44.66667,24.85
Stârci,44.68333,24.83333
Ştirbeţi,44.18333,24.93333
Ştirbeşti,45.05,24.08333
Știrbești,44.64783,23.87764
Știrbăț,47.55542,26.49256
Ştipoc,45.41667,29.28333
Știoborăni,46.74636,27.85765
Stânişoara,45.98333,23.35
Stâlnișoara,46.23956,23.20374
Stânguleţi,44.75,24.11667
Stângoi,46.26667,22.9
Stângăceaua,44.60896,23.31273
Stâncuţa,47.8,26.28333
Stânculeşti,44.78333,23.96667
Stânceşti-Ohaba,45.88333,22.65
Stăncești,44.61667,23.25
Stânceşti,44.45,23.21667
Stâncești,47.75,26.6
Stânceşti,46.58333,22.51667
Stâncești,45.87848,22.64906
Stânceni,46.98333,25.23333
Stâncăşeni,46.51667,27.46667
Știucani,44.83333,23.03333
Stânca,48.06084,26.55519
Stânca,47.82274,27.20595
Stânca,47.8214,26.27088
Stânca,47.28381,27.5847
Stânca,47.23069,26.13139
Stânca,47.06726,27.80697
Stânca,44.74547,28.29052
Știnăpari,44.84619,21.73548
Stâna de Vale,46.66667,22.5
Stâna de Mureş,46.41667,24.0
Stâna,47.15335,23.13565
Stâna,47.50757,22.96423
Stâlpu,45.08333,26.71667
Stâlpu,44.26812,25.85405
Stâlpeni,45.05,24.96667
Stignița,44.49299,23.00137
Știețești,46.0288,27.71028
Sticlăria,47.40115,26.83797
Sticlăria,45.11667,24.4
Ștertești,46.34842,22.84326
Sterpoaia,44.79058,23.43601
Sterminosu,45.33333,23.15
Sterianu de Sus,44.68333,25.85
Sterianu de Mijloc,44.7,25.86667
Sterianu de Jos,44.7,25.86667
Sterianu,44.7,25.86667
Sterea,44.32336,25.73585
Ștenea,45.97582,24.23944
Stelnica,44.41667,27.88333
Stejeriş,46.68333,24.75
Stejeriş,46.47759,24.61719
Stejeriș,46.4654,23.73708
Stejeretu,44.9,24.8
Stejerelul,44.6,23.65
Stejărel,46.07804,22.75943
Stejerei,44.93147,23.11257
Stejera,47.4419,23.42444
Stejaru,46.25,26.78333
Stejaru,47.15892,25.82422
Stejaru,46.91888,26.18023
Stejaru,46.84697,27.0508
Stejaru,46.68964,27.31937
Stejaru,46.58855,26.70219
Stejaru,45.01879,23.7153
Stejaru,44.83778,25.9611
Stejaru,44.76667,28.55
Stejaru,44.73011,28.22484
Stejaru,44.68455,23.07351
Stejaru,44.56858,27.28403
Stejaru,44.35073,24.3837
Stejaru,44.25027,25.93321
Stejaru,44.18333,24.88333
Stejaru,44.02568,24.78259
Stejărișu,46.03876,24.67817
Stejarii,47.37632,27.43322
Stejari,45.0386,24.7057
Stejari,44.76667,23.68333
Stejăreşti,45.91667,24.16667
Stejărenii,46.15367,24.72435
Stejar,46.03443,22.15536
Steiu,46.46667,22.76667
Ștei,45.58333,22.75
Steierdorf,45.06359,21.85216
Steic,44.83464,22.91934
Ștei-Arieșeni,46.46854,22.75404
Steia,46.19795,22.64386
Ştefeşti,45.21667,25.9
Ștefeni,44.22584,25.66851
Ştefan Vodă,44.31667,27.31667
Ștefanca,46.68307,24.22067
Chichinețu,44.81667,27.28333
Ştefăneşti-Sat,47.78333,27.18333
Ştefăneşti-Pasărea,44.53333,26.21667
Ştefăneştii Noi,44.53333,26.2
Ştefăneştii Noi,44.86627,24.92025
Ştefăneştii de Sus,44.53333,26.18333
Ştefăneştii de Jos,44.53333,26.2
Ştefăneşti,46.48333,24.9
Ştefăneşti,45.65,21.76667
Ștefănești,47.79169,27.20053
Ștefănești,44.9806,23.56649
Ştefăneşti,44.86506,24.94961
Ștefănești,44.78268,24.03055
Ştefăneşti,44.72497,24.96806
Ştefăneşti,44.61667,24.25
Ștefănești,44.5113,26.7379
Copăceanca,44.13333,25.21667
Ștefănel,44.41667,23.4
Ștefăneaca,46.61174,24.11205
Ştefan cel Mare,46.98482,26.5107
Ştefan cel Mare,46.71668,27.62873
Ștefan cel Mare,44.42639,27.64556
Ştefan cel Mare,44.49283,25.24418
Ştefan cel Mare,44.30149,28.07659
Ştefan cel Mare,43.81124,24.22039
Stavropolia,44.63849,25.3933
Stavropoleos,44.98333,25.61667
Stăvaru,43.86445,24.25902
Stăvăreşti,45.58333,25.98333
Stăvărăști,45.21243,27.28256
Stăuini,46.03356,23.49244
Stăuini,45.99829,23.1104
Stăuceni,47.71667,26.75
Stătuleşti,44.85,25.46667
Stațiunea Zoologică Marină Agigea,44.08916,28.64201
Stațiunea Climaterică Sâmbăta,45.69509,24.80189
Staţia Fundulea,44.46667,26.51667
Stătești,45.09672,25.49268
Stariţa,43.86667,25.26667
Starchiojd,45.31667,26.18333
Stănuleasa,44.86667,24.35
Stănuleasa,44.85793,24.41137
Stanomiru,44.74389,23.86244
Stăniţa,47.01667,27.1
Stanişte,47.71667,26.1
Stănişte,45.11667,22.43333
Stănişte,45.03333,22.41667
Stănişoara Schit,45.3,24.33333
Lăceni,44.75575,24.9842
Stănislăveşti,44.45,24.68333
Stănişeşti,46.43333,27.3
Stănileşti,45.31667,26.58333
Stănileşti,46.61833,28.17139
Stănila,45.41469,26.34594
Stănija,46.17332,22.98475
Stănicei,44.97039,24.50092
Stănești-Lunca,44.56774,24.20842
Stăneşti,46.65,23.13333
Stănești,46.52661,26.53377
Stănești,46.41241,22.88172
Stănești,45.22909,24.83604
Stăneşti,45.11667,23.25
Stănești,45.01998,22.75409
Stănești,44.89958,24.33968
Stănești,44.68539,25.73269
Stăneşti,44.3,26.41667
Stăneşti,43.91667,25.83333
Stăncuţa,44.9,27.83333
Stănculești,46.2905,22.73242
Stanciova,45.86657,21.5712
Stăncilova,44.81623,21.81278
Stăncești Larga,45.17066,23.48519
Stăncești,45.17617,23.46678
Stăncești,45.12665,26.92319
Stăncești,44.85508,25.91576
Stănceasca,44.26667,25.53333
Stancea,44.1368,26.81226
Stanca,44.87687,27.81832
Stana,46.88763,23.14473
Stamora Română,45.60903,21.39986
Stamora Germană,45.28136,21.25125
Stamate,47.60598,26.51698
Ştaieru Boşneagului,44.73333,21.68333
Spulber,45.75186,26.7608
Şpring,45.96667,23.78333
Sprâncenata,44.08333,24.63333
Sprânceana,47.23635,27.25833
Spria,46.60416,27.25954
Spiru Haret,44.86715,27.74463
Spârlenii de Deal,44.7,24.11667
Spârleni,44.70389,24.13815
Spiridoni,44.97761,24.58825
Spiridonești,46.77866,26.95381
Spiridon,44.46667,25.78333
Spireşti,44.88333,24.7
Spinuş-Pomezeu,46.78333,22.28333
Spinuș de Pomezeu,46.78727,22.2745
Spinuş,47.2,22.2
Spinu,45.39065,24.40389
Spinoasa,47.26277,27.19156
Spini,45.8341,23.08931
Spinești,45.89229,26.70561
Spâneşti,44.26667,25.56667
Spineni,47.48933,27.31924
Spineni,44.7,24.56667
Spineni,44.55914,23.73095
Spiești,47.14939,26.60422
Spidele,45.51839,26.84842
Spicul,44.8,27.5
Speteni,44.65,26.61667
Spermezeu Vale,47.3,24.15
Șesuri Spermezeu-Vale,47.32346,24.14118
Spermezeu,47.3,24.15
Sperlești,44.64914,23.00988
Sperieţi,45.95,27.11667
Speriețeni,44.76611,25.45223
Spătaru,45.0851,26.77895
Spătaru,44.69782,24.41244
Spătari,46.56667,27.71667
Spătăreşti,46.2,22.58333
Spătărești,47.42916,26.30653
Spătărei,43.88848,25.1365
Spătăreasa,45.42679,27.29622
Spătac,46.13859,23.94076
Spata,45.93103,21.87319
Spanţov,44.11667,26.78333
Șpălnaca,46.34123,23.90833
Spălăţei,44.45,24.71667
Spahii,44.68325,23.52946
Șoromiclea,46.21667,24.8
Sovorăta,47.41667,25.91667
Sovata Băi,46.6,25.06667
Sovata,46.58333,25.06667
Sovarna de Sus,44.85,22.78333
Şovarna,44.85361,22.7925
Șovoaia,46.8,26.51667
Şotrile-Vistierului,45.21667,25.71667
Şotrile-Câmpineanu,45.2,25.71667
Şotrile,45.21667,25.71667
Şotârcari,45.61667,26.96667
Şotânga,44.98333,25.36667
Șotani,44.81635,24.01685
Soşpatac,46.8,24.03333
Şoseaua Naţională,46.26667,27.06667
Şoşdea Nouă,45.46667,21.55
Șoșdea,45.45553,21.52227
Şoşcut,46.56667,25.01667
Soşba,46.8,24.03333
Soruşa,47.28333,22.76667
Soroștin,46.02924,24.06108
Şorogari,47.21667,27.56667
Soroceni,47.78376,26.82216
Sorlița,46.37177,23.01594
Sorâtu,44.96667,23.85
Şoricaru,45.01667,24.43333
Sorești,45.28315,26.82138
Soreni,44.05242,24.12727
Sorca,47.35,27.58333
Șopteriu,46.7978,24.3476
Şoptana,45.1,24.78333
Șopotu Vechi,44.85823,21.99544
Şopotu Nou,44.84194,21.86278
Sopot,44.41667,23.5
Soporu de Câmpie,46.69618,24.00658
Şopârliţa,44.28333,24.28333
Şona,46.21667,24.01667
Șona,45.84761,25.0434
Somuz,47.43333,26.6
Somușca,46.40147,26.91189
Somova,45.18333,28.66667
Șomoștelnic,46.39175,24.3853
Șomoșcheș,46.57416,21.84861
Someşu-Uzina,46.71667,23.36667
Someşu Rece,46.7165,23.34968
Someș-Uileac,47.45918,23.22755
Someșu Cald,46.7328,23.3301
Someş-Odorhei,47.31667,23.26667
Someș Guruslău,47.31144,23.2973
Someşeni,46.78333,23.65
Someșeni,47.74409,23.20641
Șomcutu Mic,47.16236,23.76344
Şomcuta Mare,47.51667,23.46667
Șomartin,45.85487,24.67046
Șomănești,44.9611,23.1141
Solovăstru,46.76667,24.76667
Soloţia,47.81667,24.43333
Solonţ,46.55,26.51667
Solonețu Nou,47.65634,25.85102
Soloneț,47.68682,26.03222
Soloneț,47.4978,27.45925
Solona,47.26381,23.40866
Solomoneşti,46.58333,26.6
Solomon,47.1736,23.41811
Zalomestra,47.83333,25.36667
Solocma,46.47592,24.99526
Solintari,46.48333,26.21667
Solicesti,45.08588,24.11551
Soleşti,46.76667,27.78333
Solea,45.01667,24.75
Solduba,47.59708,23.04333
Şoldanu,44.21667,26.51667
Șoldănești,47.45205,26.32399
Șoldănești,47.73522,26.92529
Şoldana,47.48333,27.28333
Şoldana,45.41667,27.98333
Solca,47.7,25.85
Solca,46.76013,27.15632
Solacolu,44.37944,26.5576
Șoimușu Mic,46.33581,24.96166
Șoimușu Mare,46.34699,24.92856
Șoimușeni,47.33607,23.37757
Şoimuş,46.2,22.33333
Șoimuș,47.2992,23.1863
Șoimuș,47.04215,24.62356
Soimuș,46.72045,22.329
Șoimuș,46.39388,24.58703
Șoimuș,46.2279,23.78847
Şoimuş,45.91667,22.9
Șoimu,43.83274,25.44464
Șoimoș,46.10666,21.71996
Şoimi,46.68333,22.11667
Șoimești,45.05016,26.30101
Șoimeni,46.95845,23.53339
Șoimeni,46.39427,25.85622
Şoimari,45.18333,26.2
Șoimărești,47.3083,26.44308
Soiceşti,46.25,22.75
Șoicești,46.36332,22.82896
Sohoteşti,43.98333,24.05
Sohorătu,45.08333,24.31667
Sohodor,46.40773,27.06305
Sohodol-Vârş,45.73333,22.66667
Sohodol-Vale,45.73333,22.66667
Sohodolu,45.16667,23.78333
Sohodol,45.05531,22.88194
Sohodol-Sat,45.73333,22.66667
Sohodol-Poiana,45.73333,22.66667
Sohodol-Peleş,45.73333,22.66667
Sohodol-Crihan,46.56667,26.81667
Sohodol,45.35,23.25
Sohodol,46.78101,22.42882
Sohodol,46.56124,26.82502
Sohodol,46.4711,22.94841
Sohodol,46.35581,23.02923
Sohodol,45.72818,22.6703
Sohodol,45.52829,25.40244
Sohatu,44.31667,26.5
Soharu,46.27838,23.02818
Sofronești,46.88096,27.37842
Şofronea,46.26667,21.3
Sofriceni,45.1,23.36667
Sofrăceşti,46.86667,26.86667
Sofieni,46.95355,27.64682
Sodomeni,47.22233,26.68805
Socu,44.88912,23.5056
Socrujeni,47.78286,26.91223
Socoteni,44.66667,23.68333
Soconzel,47.51717,23.0
Socond,47.56667,22.95
Socolu de Câmpie,46.79142,24.51575
Socolari,44.94378,21.72829
Socol,44.86083,21.37028
Socodor,44.93333,22.71667
Socodor,46.51667,21.43333
Socoalele,44.47858,27.16038
Soci,47.18573,26.64446
Soci,47.17034,25.79155
Soci,47.02751,26.50467
Soci,46.49205,27.55744
Soci,46.40796,27.13398
Socetu,44.19502,24.85421
Socet,47.1627,22.49453
Socet,45.77698,22.6717
Soceni,45.37276,21.94758
Soceni,44.70233,23.74948
Socea,46.73888,26.56463
Soca,45.37124,21.16425
Şoarş,45.92859,24.92867
Șoard,46.26301,24.92628
Șoala,46.05855,24.26601
Șoal,46.33087,23.07041
Sneafu,44.76667,24.01667
Snamăna,45.19561,24.45496
Snagov,44.7,26.18333
Smulţi,45.93333,27.75
Smizi,47.35,25.25
Smizi,44.7,21.85
Smirna,44.72405,27.35478
Smârdioasa,43.85,25.43333
Smârdanu Nou,45.28333,28.03333
Smârdan,48.07933,26.46927
Smârdan,45.48333,27.93333
Smârdan,44.88333,26.83333
Smârdan,44.21667,27.1
Smârdan,44.01734,24.6652
Smârdan,43.93382,22.96592
Șmig,46.22525,24.44539
Smida Ungurenilor,47.51693,25.33838
Smida,46.65,23.01667
Zmeuret,45.33973,26.15521
Smeura de Jos,44.83333,24.83333
Smeura,44.83406,24.83559
Smei,44.72974,24.84122
Smeești,45.49763,26.73596
Smeeni,44.98333,26.85
Smadovița,44.4805,23.20162
Smadovicioara de Secu,44.49043,23.2686
Smadovicioara,44.48333,23.18333
Sloveanu,45.5,26.81667
Slovacii,47.36667,22.68333
Slovacii,47.3,22.85
Slon,45.35521,26.04189
Slobozia- Vidraşcu,45.71667,27.11667
Slobozia-Ventura,45.73333,27.88333
Slobozia Sucevei,47.76428,26.04656
Slobozia Silișcani,47.86086,27.08183
Slobozia Oancea,45.89446,28.11039
Slobozia Nouă,47.85,27.08333
Slobozia Nouă,44.60251,27.3872
Slobozia Nouă,46.53959,27.29773
Slobozia Movilei,45.53333,27.96667
Slobozia Moara,44.6,25.71667
Slobozia-Mândra,43.91667,24.7
Slobozia Hănești,47.91383,26.99548
Slobozia de Jos,44.51667,25.23333
Slobozia Corni,45.99166,27.48034
Slobozia Conachi,45.58333,27.78333
Slobozia-Cireşu,44.96667,27.35
Slobozia-Ciorăşti,45.61667,27.2
Slobozia-Câmpineanca,45.7,27.13333
Slobozia Bradului,45.5,27.05
Slobozia Botești,45.51845,27.42443
Slobozia-Bivol,48.25,26.7
Slobozia Blăneasa,45.93808,27.47951
Slobozia Avrămeşti,47.91667,26.98333
Slobozia,47.91667,26.98333
Slobozia,45.7,27.13333
Slobozia,45.61667,27.2
Slobozia,45.11667,25.75
Slobozia,43.51667,27.11667
Slobozia,48.24533,26.69851
Slobozia,48.00404,26.59848
Slobozia,47.95819,26.48124
Slobozia,47.79396,26.32217
Slobozia,47.5675,26.5553
Slobozia,47.4772,26.88958
Slobozia,47.39964,26.74284
Slobozia,47.05758,27.41446
Slobozia,47.06416,27.11489
Slobozia,47.0185,27.61526
Slobozia,46.98672,27.74625
Slobozia,46.84892,26.53344
Slobozia,46.75317,27.23029
Slobozia,46.50883,27.19012
Slobozia,46.47495,27.31111
Slobozia,46.48333,27.23333
Slobozia,46.27794,26.78863
Slobozia,46.11204,27.11938
Slobozia,45.91667,27.41667
Slobozia,45.7,27.5
Slobozia,45.27269,26.25845
Slobozia,45.27491,25.18031
Slobozia,45.02922,23.23129
Slobozia,44.72322,25.7078
Slobozia,44.52527,25.24263
Slobozia,44.43445,25.12981
Slobozia,44.38333,25.93333
Slobozia,43.85,25.9
Slivna,46.08484,27.94195
Slivileşti,44.78333,23.13333
Slinu,46.28333,22.91667
Slimnic,45.91667,24.16667
Slimnic,45.50811,27.05133
Slăvuța,44.69891,23.68346
Slavu,45.16009,26.12554
Slăvitești,44.92418,24.21848
Slăvești,44.34106,25.19768
Slăveni,44.08558,24.52843
Slava Rusă,44.85029,28.60557
Slava Cercheză,44.90128,28.54753
Slătioarele,45.08141,24.26199
Slătioarele,44.85976,24.75266
Slătioarele,44.78615,26.51694
Slătinioara,45.40971,23.39934
Slătioara,47.75512,24.09313
Slătioara,47.46136,25.66176
Slătioara,47.37919,26.11722
Slătioara,45.11667,23.91667
Slătioara,44.4,24.31667
Slătinița,47.20415,24.52696
Slătinicu Mic,44.59031,23.19086
Slătinicu Mare,44.59937,23.20567
Slatina-Timiş,45.25,22.28333
Slatina-Nera,44.91594,21.68969
Slatina de Mureș,46.15611,22.18444
Slatina de Criș,46.43253,22.22832
Slatina,47.45,26.01667
Slatina,45.35744,24.80184
Slatina,44.43333,24.36667
Slașoma,44.41981,23.04962
Slănic-Moldova,46.22308,26.47413
Slănic,45.25,25.93333
Slănic,45.23108,24.89411
Slămnești,45.26994,24.77139
Slămnești,44.60442,23.69137
Slabi,45.33333,26.41667
Șivița,45.61285,28.05757
Șitoaia,45.05875,23.79727
Șitoaia,44.42226,23.72221
Sititelec,46.87672,21.90222
Sitești,45.14194,23.67823
Sitaru,44.66883,26.33118
Sitani,46.81318,22.30229
Sita Buzăului,45.65,26.06667
Sita,47.3158,24.18326
Șișterea,47.16066,22.07409
Şiştarovăţ,46.01667,21.73333
Siseştii de Sus,44.78333,22.83333
Siseşti,45.06667,23.3
Șisești,47.63506,23.70794
Şişeşti,44.7775,22.83944
Șișcani,46.58266,27.99513
Șișcani,46.1523,27.17039
Sârsca,44.3704,23.54569
Șiroca,44.82749,22.60986
Șirnea,45.47361,25.25725
Şirna,44.8,25.95
Șirlău,48.05882,23.12861
Șiriu,44.62912,28.18794
Șirioara,47.10199,24.29503
Sirinia,44.61667,22.01667
Şirineasa,44.93333,24.2
Şiria,46.26667,21.63333
Sârghieşti,47.71667,26.1
Siretu,46.67163,26.93174
Siretu,46.50663,26.96838
Siretu,45.8853,27.23753
Sireţel,47.4,26.73333
Siret,47.95,26.06667
Sârca Nouă,47.26667,26.98333
Sârca,47.22928,27.1808
Sârca,45.08821,25.82426
Sârbi Sfinţeşti,44.2,25.1
Sârbii-Măgura,44.55,24.71667
Sârbi,47.94268,26.91818
Sârbi,47.76184,23.9449
Sârbi,47.5941,23.34353
Sârbi,47.25,26.45
Sârbi,47.19315,22.12215
Sârbi,47.06659,22.79871
Sârbi,46.53333,26.68333
Sârbi,46.39301,27.80968
Sârbi,46.28894,22.64248
Sârbi,46.23049,27.33805
Sârbi,45.96129,22.70724
Sârbi,45.92712,27.32722
Sârbi,45.86968,27.06527
Sârbi,45.51667,21.91667
Sârbi,44.64967,24.08613
Sârbesti,46.5,22.48333
Sârbești,45.48333,26.68333
Sârbești,45.11667,23.78333
Sârbeşti,45.11667,23.46667
Sârbenii de Jos,44.46315,25.40878
Sârbeni,44.46667,25.38333
Șipot,45.09964,25.31126
Șipotu,45.04076,26.01714
Șipotu,44.99721,22.72224
Șipotu,44.70134,23.52361
Șipotu,44.50289,22.91616
Şipoteni,46.41667,26.46667
Şipoteni,48.01667,26.53333
Şipoţelul,44.7,23.51667
Şipotele,45.76667,26.78333
Șipotele,44.04474,27.9597
Şipote Iamandi,43.93333,24.98333
Şipote,43.93333,24.98333
Şipote,47.46667,27.21667
Şipote,46.68333,26.68333
Șipote,46.14725,27.90818
Şipot,47.63333,26.25
Şipot,45.8,24.35
Șipet,45.50728,21.40078
Sipeni,46.13694,27.98275
Sânzieni,46.05,26.13333
Sânvăsii,46.5,24.73333
Sântuhalm,45.85748,22.95403
Sântu,46.80134,24.60358
Sântionlunca,45.82459,25.87538
Sântion,47.09634,21.8366
Sântioana de Mureş,46.51688,24.45677
Sântioana,47.00747,24.56406
Sântioana,46.96981,24.01161
Sântioana,46.28368,24.55132
Sântimreu,47.24877,22.0451
Sântimbru-Băi,46.28333,25.86667
Sântimbru,46.28126,25.85439
Sântimbru,46.13333,23.65
Şinteu,47.15,22.48333
Sintești,45.87429,22.24683
Sintești,44.66641,26.58467
Sintești,44.30046,26.12126
Șintereag-Gară,47.17761,24.2726
Şintereag,47.18333,24.3
Sântelec,46.95822,22.06468
Sântejude Vale,46.96344,23.9625
Sântejude,46.92683,23.99053
Sintea Mică,46.4139,21.60462
Sintea Mare,46.51667,21.6
Sintar,45.97529,21.59787
Sântandrei,47.06615,21.85352
Sântandrei,46.53333,24.81667
Sântandrei,45.85,22.96667
Sântana Nirajului,46.51667,24.81667
Sântana de Mureş,46.56667,24.55
Sântana,46.35,21.5
Sântămărie,46.24184,24.14688
Sântămăria-Orlea,45.58874,22.97042
Sântămăria de Piatră,45.76667,23.01667
Santa Mare,47.61667,27.35
Sânta Maria,47.03333,23.2
Sânsimion,46.5,24.83333
Sânsimion,46.25,25.88333
Sânpetru Nou,46.05,20.85
Sânpetru Mic,46.0289,21.03615
Sânpetru Mare,46.05,20.66667
Sânpetru German,46.11327,21.04932
Sânpetru de Câmpie,46.71589,24.26243
Sânpetru Almașului,47.06667,23.35
Sânpetru,45.71082,25.63678
Sânpetru,45.55527,22.91536
Sânpaul,46.88333,23.41667
Sânpaul,46.45,24.35
Sânpaul,46.25791,21.26864
Sânpaul,46.1914,25.38235
Sinoe,44.63333,28.73333
Sânnicolau Român,46.96101,21.71466
Sânnicolau Mic,46.13333,21.35
Sânnicolau Mare,46.08333,20.63333
Sânnicolau German,46.06667,20.6
Sânnicolau de Munte,47.30362,22.13671
Sânnicolau de Beiuş,46.68333,22.11667
Sânnicoară,46.7899,23.7257
Sânnicoară,46.98075,24.12806
Sânmihaiu Român,45.70444,21.08889
Sânmihaiu German,45.7108,21.03091
Sânmihaiu de Sus,46.53333,23.75
Sânmihai de Pădure,46.73333,24.86667
Sânmihaiu de Câmpie,46.89257,24.33589
Sânmihaiu Almaşului,47.01667,23.3
Sânmiclăuş,47.63333,22.6
Sânmiclăuş,46.25,24.05
Sânmartinu Sârbesc,45.60578,20.95907
Sânmartinu Maghiar,45.63717,20.91212
Sânmartinu de Câmpie,46.71667,24.41667
Sânmartin de Beiuş,46.68333,22.31667
Sânmărtin,47.00953,24.07811
Sînmartin,47.00726,21.97418
Sânmărtin,46.9,23.56667
Sânmartin,46.41653,21.34821
Sânmartin,46.26667,25.93333
Sânmărghita,47.15649,23.99461
Sânmărghita,46.48157,24.37233
Sânleani,46.21286,21.38506
Sânlazar,47.3,22.25
Sânişor,46.54511,24.69692
Sinic,45.88333,21.81667
Sâniacob,47.0566,24.29826
Sâniacob,46.42282,24.1334
Singureni,44.23361,25.94333
Sângeru de Pădure,46.64072,24.66506
Sângeru,45.13333,26.35
Sângeri,47.38883,27.22917
Sânger,46.55829,24.13769
Sângeorz-Băi,47.3685,24.67212
Sângeorzu Nou,46.96667,24.36667
Sângeorgiu de Pădure,46.43061,24.84274
Sângeorgiu de Mureş,46.5696,24.59453
Sângeorgiu de Meseş,47.03333,23.0
Sângeorgiu de Câmpie,46.72695,24.29665
Sângeorge,45.39942,21.31948
Sângătin,45.91209,23.85365
Sineu,46.81469,25.41926
Sineştii Vechi,44.56667,26.36667
Sineşti,47.11667,27.18333
Sinești,44.99398,24.51581
Sineşti,44.95,23.85
Sineşti,44.56667,26.38333
Sinești,44.46777,24.66585
Sinersig,45.67348,21.72282
Șindrilița,44.51405,26.3194
Șindrilari,45.79083,26.87947
Șindrila,45.56497,26.70867
Șindrești,47.6066,23.69513
Sândominic,46.584,25.78028
Sinculeşti,44.81667,24.13333
Sâncraiu Silvaniei,47.30036,23.13524
Sâncraiu de Mureş,46.55119,24.52663
Sâncraiu Almaşului,46.96667,23.35
Sâncraiu,46.83333,22.98333
Sâncrai,46.36667,25.31667
Sâncraiu,45.82372,25.76267
Sâncrai,45.75,22.98333
Sâncrăieni,46.31439,25.83941
Sâncrai,46.29394,23.75209
Sâncel,46.47733,25.2964
Sâncel,46.2,23.95
Şinca Veche,45.76667,25.16667
Șinca Nouă,45.69457,25.24348
Şincai-Fânaţe,46.65,24.38333
